facilityId,facilityName,concat_address,typeOfFacility,categoryOfFacility,google_lat,google_long,biz_status,gbiz_name,rating,price_level,total_user_ratings
FA0004494,ROASTED TOAD BBQ THE,229 HWY 119 NEDERLAND CO USA,RESTAURANT 0 TO 100 SEATS,FULL MENU LIMITED SERVICE,39.9631805,-105.5095941,0,0,0.0,0.0,0.0
FA0003893,FAIR ISLE COFFEE CO @ LGMT FARM MRKT,237 COLLYER ST Longmont CO USA,SPECIAL EVENT,SPECIAL EVENT,40.1630767,-105.0985565,0,0,0.0,0.0,0.0
FA0003618,CARNICERIA EL CERRITO,936 MAIN ST LONGMONT CO USA,GROCERY STORE 0 TO 15000 SQ FT,GROCERY FINISHED FOODS,40.1753769,-105.102119,0,0,0.0,0.0,0.0
FA0000878,UTE CREEK GOLF COURSE,2000 UTE CREEK DR LONGMONT CO USA,RESTAURANT 0 TO 100 SEATS,FAST FOOD LIMITED MENU,40.1892487,-105.0638812,0,0,0.0,0.0,0.0
FA0004983,LEVY IPF 1 (MOBILE),2400 COLORADO AVE BOULDER CO USA,MOBILE UNIT FULL FOOD SERVICE,MOBILE UNITS,40.0091912,-105.2669142,0,0,0.0,0.0,0.0
FA0005140,BOULDER BEEF (MOBILE PRE-PKG),24249 COUNTY RD Lasalle CO USA,MOBILE UNIT PREPACKAGED,PRE PACKAGED,40.3202837,-103.6914147,0,0,0.0,0.0,0.0
FA0005261,MOUNTAIN VIEW GRILL 2  (MOBILE),101 E BISON HWY Hudson CO USA,MOBILE UNIT FULL FOOD SERVICE,MOBILE UNITS,40.0780884,-104.6503559,0,0,0.0,0.0,0.0
FA0000100,CUPPA HOUSE COFFEE & TEA,1102 FRANCIS ST LONGMONT CO USA,RESTAURANT 0 TO 100 SEATS,FULL MENU LIMITED SERVICE,40.1779437,-105.1160281,0,0,0.0,0.0,0.0
FA0003437,(CU) C4C THE BAKERY,2249 WILLARD LOOP DR UNIT N170 BOULDER CO USA,RESTAURANT 0 TO 100 SEATS,FULL MENU LIMITED SERVICE,40.0045248,-105.2649229,0,0,0.0,0.0,0.0
FA0005083,AREPA JOINT THE (MOBILE),4920 PEARL ST UNIT C&D BOULDER CO USA,MOBILE UNIT FULL FOOD SERVICE,MOBILE UNITS,40.025388,-105.2377392,0,0,0.0,0.0,0.0
FA0004603,NIWOT WHEEL WORKS,101 2ND AVE NIWOT CO USA,RESTAURANT 0 TO 100 SEATS,FULL MENU LIMITED SERVICE,40.1032048,-105.17291,0,0,0.0,0.0,0.0
FA0000027,ARAPAHOE MEAT CO,12420 ARAPAHOE RD LAFAYETTE CO USA,GROCERY STORE W DELI 0 TO 15000 SQ FT,GROCERY FINISHED FOODS,40.014688,-105.06203,0,0,0.0,0.0,0.0
FA0003002,CHOP 5 SALAD KTICHEN,2525 ARAPAHOE RD UNIT H6 BOULDER CO USA,RESTAURANT 0 TO 100 SEATS,FULL MENU LIMITED SERVICE,40.0149546,-105.2596866,0,0,0.0,0.0,0.0
FA0004505,SMOKIN BOWLS,449 MAIN ST LONGMONT CO USA,RESTAURANT 0 TO 100 SEATS,FULL MENU LIMITED SERVICE,40.1667218,-105.1028957,0,0,0.0,0.0,0.0
FA0001319,(CU)  FARRAND ALLEY,2200 BARKER DR BOULDER CO USA,RESTAURANT 0 TO 100 SEATS,FULL SERVICE FULL MENU,40.0060088,-105.2657756,0,0,0.0,0.0,0.0
FA0002421,EGGLOO DELIGHTS (SPECIAL EVENT),1515 MAIN ST LONGMONT CO USA,SPECIAL EVENT,SPECIAL EVENT,40.18535079999999,-105.103147,0,0,0.0,0.0,0.0
FA0002979,LA PUPUSA LOCA (MOBILE),637 S BROADWAY ST UNIT G1 Boulder CO USA,MOBILE UNIT FULL FOOD SERVICE,MOBILE UNITS,39.7050752,-104.9875752,0,0,0.0,0.0,0.0
FA0004967,LA FAMILIA (MOBILE),4920 PEARL ST UNIT C/D Boulder CO USA,MOBILE UNIT FULL FOOD SERVICE,MOBILE UNITS,40.025388,-105.2377392,0,0,0.0,0.0,0.0
FA0001266,FRASIER MEADOWS MANOR KITCHEN,350 PONCA PL BOULDER CO USA,RESTAURANT 0 TO 100 SEATS,RESIDENTIAL FACILITIES,39.99422,-105.2341427,0,0,0.0,0.0,0.0
FA0000442,HOMEWOOD SUITES BOULDER,4950 BASELINE RD BOULDER CO USA,RESTAURANT 0 TO 100 SEATS,FULL MENU LIMITED SERVICE,39.9973834,-105.2326884,0,0,0.0,0.0,0.0
FA0005285,GREAT OUTDOORS WATER PARK THE,500 S BOULDER RD Lafayette CO USA,RESTAURANT 0 TO 100 SEATS,FAST FOOD LIMITED MENU,39.9863975,-105.0846261,0,0,0.0,0.0,0.0
FA0000521,MEEKER PARK LODGE,11733 COLO  7 HWY ALLENSPARK CO USA,GROCERY STORE 0 TO 15000 SQ FT,GROCERY FINISHED FOODS,40.2356189,-105.5297838,0,0,0.0,0.0,0.0
FA0004972,COMMUNITY CUPBOARD FOOD BANK,14863 W HWY 7 ALLENSPARK CO USA,NO FEE LICENSE K12 SCHOOLS NON PROFIT,FOOD BANK,40.19648660000001,-105.5271916,0,0,0.0,0.0,0.0
FA0001261,ROCK CREEK TAVERN & PIZZERIA,6 SKI RD ALLENSPARK CO USA,RESTAURANT 0 TO 100 SEATS,FULL MENU LIMITED SERVICE,40.1946126,-105.5256342,0,0,0.0,0.0,0.0
FA0005450,LA BARRA DEL SAZON (MOBILE),2350 N MAIN ST Longmont CO USA,MOBILE UNIT FULL FOOD SERVICE,MOBILE UNITS,40.2013638,-105.101731,0,0,0.0,0.0,0.0
FA0002718,JAMBA JUICE @ UMC (CU),1669 EUCLID AVE UMC 154 BOULDER CO USA,RESTAURANT 0 TO 100 SEATS,FAST FOOD LIMITED MENU,40.006295,-105.2719745,0,0,0.0,0.0,0.0
FA0003739,JUNGLE,2018 10TH ST BOULDER CO USA,RESTAURANT 0 TO 100 SEATS,FULL MENU LIMITED SERVICE,40.01779570000001,-105.2825984,0,0,0.0,0.0,0.0
FA0005025,FRESH THYMES MARKETPLACE,2690 28TH ST UNIT F BOULDER CO USA,RESTAURANT 0 TO 100 SEATS,FULL MENU LIMITED SERVICE,40.0270674,-105.2575251,0,0,0.0,0.0,0.0
FA0003809,TRES REYNAS,2690 28TH ST UNIT G BOULDER CO USA,GROCERY STORE 0 TO 15000 SQ FT,GROCERY FINISHED FOODS,40.0270353,-105.2575883,0,0,0.0,0.0,0.0
FA0001283,GABEE COFFEE,3040 28TH ST BOULDER CO USA,RESTAURANT 0 TO 100 SEATS,FAST FOOD LIMITED MENU,40.0299891,-105.2579121,0,0,0.0,0.0,0.0
FA0000848,RUSTY MELON THE,6525 GUNPARK DR UNIT 380 BOULDER CO USA,RESTAURANT 0 TO 100 SEATS,FULL SERVICE FULL MENU,40.0702236,-105.2007782,0,0,0.0,0.0,0.0
FA0000942,UBON THAI CUISINE,155 HWY 119 E NEDERLAND CO USA,RESTAURANT 0 TO 100 SEATS,FULL SERVICE FULL MENU,39.964973,-105.503948,0,0,0.0,0.0,0.0
FA0004554,COLORADO CHAUTAUQUA ASSOCIATION,900 BASELINE RD BOULDER CO USA,LIMITED FOOD SERVICE CONVENIENCE OTHER,FAST FOOD LIMITED MENU,40.000023,-105.2819456,0,0,0.0,0.0,0.0
FA0005127,PASSPORT FOOD TRUCK,555 30TH ST BOULDER CO USA,MOBILE UNIT FULL FOOD SERVICE,MOBILE UNITS,39.9983767,-105.2539852,0,0,0.0,0.0,0.0
FA0004651,VFW POST 1771,110 E SOUTH BOULDER RD LAFAYETTE CO USA,LIMITED FOOD SERVICE CONVENIENCE OTHER,BARS FRATERNAL ORGANIZATIONS,39.9864999,-105.0894674,0,0,0.0,0.0,0.0
FA0005372,THERE WITH CARE (PANTRY),2825 WILDERNESS PL UNIT 100 Boulder CO USA,NO FEE LICENSE K12 SCHOOLS NON PROFIT,FOOD BANK,40.0256766,-105.2492018,0,0,0.0,0.0,0.0
FA0000633,PEACEFUL MEADOW  RETREAT,7075 VALMONT DR BOULDER CO USA,RESTAURANT 0 TO 100 SEATS,FULL MENU LIMITED SERVICE,40.0368638,-105.1895442,0,0,0.0,0.0,0.0
FA0003891,WHEEL & WHISK THE (MOBILE),5706 N ARAPAHOE AVE Boulder CO USA,MOBILE UNIT FULL FOOD SERVICE,MOBILE UNITS,40.0114098,-105.2206426,0,0,0.0,0.0,0.0
FA0005101,CHOCOLATERIE STAM,103 N PUBLIC RD UNIT B LAFAYETTE CO USA,RESTAURANT 0 TO 100 SEATS,FAST FOOD LIMITED MENU,39.9983946,-105.0906777,0,0,0.0,0.0,0.0
FA0002863,HISSHO SUSHI #312 (INSIDE SPROUTS),2525 ARAPAHOE AVE BOULDER CO USA,RESTAURANT 0 TO 100 SEATS,FULL MENU LIMITED SERVICE,40.0152398,-105.2600413,0,0,0.0,0.0,0.0
FA0000193,QUALITY INN,1196 W DILLON RD LOUISVILLE CO USA,RESTAURANT 0 TO 100 SEATS,FULL MENU LIMITED SERVICE,39.96130170000001,-105.1678674,0,0,0.0,0.0,0.0
FA0005345,HOLY CREPE (MOBILE),1650 BROADWAY ST Boulder CO USA,MOBILE UNIT FULL FOOD SERVICE,MOBILE UNITS,40.0139508,-105.2782063,0,0,0.0,0.0,0.0
FA0000801,RUTHIES,1397 PEARL ST BOULDER CO USA,RESTAURANT 0 TO 100 SEATS,FAST FOOD LIMITED MENU,40.0184655,-105.2775157,0,0,0.0,0.0,0.0
FA0005329,A TAKEAR (MOBILE),2887 30TH ST Boulder CO USA,MOBILE UNIT FULL FOOD SERVICE,MOBILE UNITS,40.0284999,-105.254269,0,0,0.0,0.0,0.0
FA0000258,BREWING MARKET,1918 13TH ST BOULDER CO USA,RESTAURANT 0 TO 100 SEATS,FAST FOOD LIMITED MENU,40.01758030000001,-105.2782401,0,0,0.0,0.0,0.0
FA0003614,ROBIN CHOCOLATES,600 S AIRPORT RD UNIT B-D LONGMONT CO USA,RESTAURANT 0 TO 100 SEATS,FAST FOOD LIMITED MENU,40.1512854,-105.1531705,0,0,0.0,0.0,0.0
FA0002171,POLLERIA LA FOGATA,1690 N MAIN ST LONGMONT CO USA,RESTAURANT 0 TO 100 SEATS,FAST FOOD LIMITED MENU,40.1883354,-105.1016196,0,0,0.0,0.0,0.0
FA0001351,INDIAS GROCERY,2877 28TH ST BOULDER CO USA,GROCERY STORE 0 TO 15000 SQ FT,GROCERY FINISHED FOODS,40.0284622,-105.2592827,0,0,0.0,0.0,0.0
FA0000355,RAZA FRESA MEXICAN KITCHEN,7960 NIWOT RD UNIT D11 NIWOT CO USA,RESTAURANT 0 TO 100 SEATS,FULL SERVICE FULL MENU,40.10004929999999,-105.1672438,0,0,0.0,0.0,0.0
FA0005050,(CU) VILLAGE CENTER THE GRANGE (GRILLE),510 30TH ST BOULDER CO USA,RESTAURANT 0 TO 100 SEATS,FAST FOOD LIMITED MENU,39.9979788,-105.2524055,0,0,0.0,0.0,0.0
FA0004740,SISTER CARMEN COMMUNITY CENTER,655 ASPEN RIDGE DR LAFAYETTE CO USA,NO FEE LICENSE K12 SCHOOLS NON PROFIT,FOOD BANK,40.0034016,-105.1069839,0,0,0.0,0.0,0.0
FA0004539,AIMES LOVE,331 MAIN ST LONGMONT CO USA,RESTAURANT 0 TO 100 SEATS,FAST FOOD LIMITED MENU,40.1646031,-105.102911,0,0,0.0,0.0,0.0
FA0000036,ASIAN SEAFOOD MARKET,2833 28TH ST BOULDER CO USA,GROCERY STORE 0 TO 15000 SQ FT,GROCERY FINISHED FOODS,40.0279738,-105.2588537,0,0,0.0,0.0,0.0
FA0002087,OBSERV LOCATION 2 (MOBILE),4333 CHEROKEE ST DENVER CO USA,MOBILE UNIT FULL FOOD SERVICE,MOBILE UNITS,39.7759045,-104.991597,0,0,0.0,0.0,0.0
FA0002021,LEVY FOLSOM FIELD HOT PREP KITCHEN 6TH FLOOR (CU),2400 COLORADO AVE RM 680 BOULDER CO USA,RESTAURANT 0 TO 100 SEATS,FULL SERVICE FULL MENU,40.0091912,-105.2669142,0,0,0.0,0.0,0.0
FA0000390,HAMPTON INN,850 S MAIN ST LONGMONT CO USA,RESTAURANT 0 TO 100 SEATS,FAST FOOD LIMITED MENU,40.1492455,-105.101868,0,0,0.0,0.0,0.0
FA0002019,LEVY FOLSOM FIELD COLD KITCHEN 6TH FLOOR (CU),2400 COLORADO AVE RM 604 BOULDER CO USA,RESTAURANT 0 TO 100 SEATS,FULL SERVICE FULL MENU,40.0091912,-105.2669142,0,0,0.0,0.0,0.0
FA0000649,INDIAN PEAKS GOLF COURSE AT LAFAYET,2300 INDIAN PEAKS TR LAFAYETTE CO USA,RESTAURANT 101 TO 200 SEATS,FULL SERVICE FULL MENU,40.0067463,-105.1244908,0,0,0.0,0.0,0.0
FA0004654,JACKLEGGERS MERCANTILE,62 UTICA ST WARD CO USA,RESTAURANT 0 TO 100 SEATS,FAST FOOD LIMITED MENU,40.0728334,-105.5068895,0,0,0.0,0.0,0.0
FA0003592,AOI,3303 30TH ST BOULDER CO USA,RESTAURANT 0 TO 100 SEATS,FULL SERVICE FULL MENU,40.0352285,-105.2546915,0,0,0.0,0.0,0.0
FA0000844,TAQUERIA MADERO,830 LASHLEY ST UNIT A LONGMONT CO USA,RESTAURANT 0 TO 100 SEATS,FULL SERVICE FULL MENU,40.1732489,-105.0878986,0,0,0.0,0.0,0.0
FA0003825,ETAIS AT CU,3415 COLORADO AVE BOULDER CO USA,RESTAURANT 0 TO 100 SEATS,FAST FOOD LIMITED MENU,40.008301,-105.2490525,0,0,0.0,0.0,0.0
FA0005391,SCROOGE MAKI 1 (MOBILE),1107 13TH ST Boulder CO USA,MOBILE UNIT FULL FOOD SERVICE,MOBILE UNITS,40.0075099,-105.2764136,0,0,0.0,0.0,0.0
FA0002128,LAS PALMERAS EXPRESS,1640 PACE ST UNIT 400 LONGMONT CO USA,RESTAURANT 0 TO 100 SEATS,FAST FOOD LIMITED MENU,40.187594,-105.0713434,0,0,0.0,0.0,0.0
FA0004511,OZO COFFEE CAFE,1898 S FLATIRON CT UNIT 110 BOULDER CO USA,RESTAURANT 0 TO 100 SEATS,FAST FOOD LIMITED MENU,40.0204271,-105.2182589,0,0,0.0,0.0,0.0
FA0000879,TEN PIN ALLEY,550 W SOUTH BOULDER RD LAFAYETTE CO USA,RESTAURANT 0 TO 100 SEATS,BARS FRATERNAL ORGANIZATIONS,39.9855702,-105.0973629,0,0,0.0,0.0,0.0
FA0000945,PEAK GOLF,1200 CORNELL DR LONGMONT CO USA,RESTAURANT 0 TO 100 SEATS,FAST FOOD LIMITED MENU,40.1792325,-105.1459488,0,0,0.0,0.0,0.0
FA0001037,BF MOUNTAIN MARKET,60 LAKEVIEW DR NEDERLAND CO USA,GROCERY STORE W DELI MORE THAN 15000 SQ FT,GROCERY FINISHED FOODS,39.9602118,-105.5088811,0,0,0.0,0.0,0.0
FA0002676,HOLIDAY INN EXPRESS QWMCO,1355 DRY CREEK DR LONGMONT CO USA,RESTAURANT 0 TO 100 SEATS,FAST FOOD LIMITED MENU,40.1419518,-105.1346212,0,0,0.0,0.0,0.0
FA0005319,LA GARNACHA (MOBILE),1515 MAIN ST Longmont CO USA,MOBILE UNIT FULL FOOD SERVICE,MOBILE UNITS,40.18535079999999,-105.103147,0,0,0.0,0.0,0.0
FA0003015,MACS PLACE @GE OIL & GAS,1800 NELSON RD LONGMONT CO USA,RESTAURANT 0 TO 100 SEATS,FULL MENU LIMITED SERVICE,40.1536257,-105.1224237,0,0,0.0,0.0,0.0
FA0004789,300 SUNS BREWING,335 1ST AVE UNIT C LONGMONT CO USA,RESTAURANT 0 TO 100 SEATS,FAST FOOD LIMITED MENU,40.1599201,-105.1012742,0,0,0.0,0.0,0.0
FA0005085,NATURAL GROCERS,2685 PEARL ST BOULDER CO USA,GROCERY STORE  MORE THAN 15000 SQ FT,GROCERY FINISHED FOODS,40.02231159999999,-105.260122,0,0,0.0,0.0,0.0
FA0000688,RALLY SPORT HEALTH AND FITNESS,2727 29TH ST BOULDER CO USA,RESTAURANT 0 TO 100 SEATS,FULL MENU LIMITED SERVICE,40.02803189999999,-105.2568783,0,0,0.0,0.0,0.0
FA0001204,SCRATCH KITCHENS,2299 PEARL ST UNIT 300 BOULDER CO USA,RESTAURANT 0 TO 100 SEATS,FULL MENU LIMITED SERVICE,40.0211438,-105.2659919,0,0,0.0,0.0,0.0
FA0000247,SEVENTEEN THIRTY-NINE,1739 PEARL ST BOULDER CO USA,RESTAURANT 0 TO 100 SEATS,FULL SERVICE FULL MENU,40.0195963,-105.2725249,0,0,0.0,0.0,0.0
FA0000127,BPOE LODGE 566,3975 28TH ST Boulder CO USA,RESTAURANT 0 TO 100 SEATS,BARS FRATERNAL ORGANIZATIONS,40.046821,-105.2615676,0,0,0.0,0.0,0.0
FA0004706,SEEDS LIBRARY CAFE,1001 ARAPAHOE AVE BOULDER CO USA,RESTAURANT 0 TO 100 SEATS,FAST FOOD LIMITED MENU,40.0138604,-105.2815129,0,0,0.0,0.0,0.0
FA0001000,HARD DRIVE CAFE AT SEAGATE,389 DISC DR LONGMONT CO USA,RESTAURANT 0 TO 100 SEATS,FULL SERVICE FULL MENU,40.1544358,-105.1737783,0,0,0.0,0.0,0.0
FA0005084,RAPHA RACING,1815 PEARL ST BOULDER CO USA,LIMITED FOOD SERVICE CONVENIENCE OTHER,FULL MENU LIMITED SERVICE,40.0199041,-105.2716584,0,0,0.0,0.0,0.0
FA0000075,TRES GRINGOS CANTINA,20 LAKEVIEW DR NEDERLAND CO USA,RESTAURANT 0 TO 100 SEATS,FULL SERVICE FULL MENU,39.9598234,-105.5094306,0,0,0.0,0.0,0.0
FA0000974,GIOVANNITTI COFFEE,801 MAIN ST UNIT 110 LOUISVILLE CO USA,LIMITED FOOD SERVICE CONVENIENCE OTHER,FAST FOOD LIMITED MENU,39.9779335,-105.1325197,0,0,0.0,0.0,0.0
FA0002210,LEVY MOTIONS (MOBILE),950 REGENT DR BOULDER CO USA,MOBILE UNIT FULL FOOD SERVICE,MOBILE UNITS,40.004712,-105.2605424,0,0,0.0,0.0,0.0
FA0001373,NITRO CLUB,1124 PEARL ST BOULDER CO USA,RESTAURANT 0 TO 100 SEATS,FAST FOOD LIMITED MENU,40.0175027,-105.2806253,0,0,0.0,0.0,0.0
FA0003792,ETOWN HALL,1535 SPRUCE ST BOULDER CO USA,RESTAURANT 0 TO 100 SEATS,FAST FOOD LIMITED MENU,40.0203239,-105.2754856,0,0,0.0,0.0,0.0
FA0004521,LE FRENCH CAFE,2525 ARAPAHOE AVE UNIT C1 BOULDER CO USA,RESTAURANT 0 TO 100 SEATS,FULL MENU LIMITED SERVICE,40.0152398,-105.2600413,0,0,0.0,0.0,0.0
FA0001321,(CU) SEWALL DINING CENTER,1720 UNIVERSITY AVE BOULDER CO USA,RESTAURANT MORE THAN 200 SEATS,FULL SERVICE FULL MENU,40.0104719,-105.2720362,0,0,0.0,0.0,0.0
FA0004853,LONCHERA LOS PAISAS (MOBILE),3141 28TH ST BOULDER CO USA,MOBILE UNIT FULL FOOD SERVICE,MOBILE UNITS,40.03166150000001,-105.2593591,0,0,0.0,0.0,0.0
FA0002879,NATURAL HOMESTEAD BEEF (PRE-PKG MOBILE 2),18494 WCR 39 RD Lasalle CO USA,MOBILE UNIT PREPACKAGED,PRE PACKAGED,41.4990787,-88.8672714,0,0,0.0,0.0,0.0
FA0004518,HAMPTON INN & SUITES,6333 LOOKOUT RD BOULDER CO USA,RESTAURANT 0 TO 100 SEATS,FAST FOOD LIMITED MENU,40.0724413,-105.205723,0,0,0.0,0.0,0.0
FA0000253,(CU) UMC FRONT HOUSE ALFERD PACKER,1669 EUCLID AVE UNIT 202UC BOULDER CO USA,RESTAURANT 0 TO 100 SEATS,FULL MENU LIMITED SERVICE,40.0065706,-105.2717488,0,0,0.0,0.0,0.0
FA0000682,GUACAMOLES,827 KEN PRATT BLVD LONGMONT CO USA,RESTAURANT 0 TO 100 SEATS,FAST FOOD LIMITED MENU,40.1516843,-105.1067555,0,0,0.0,0.0,0.0
FA0004683,HYATT PLACE BOULDER,2280 JUNCTION PL BOULDER CO USA,RESTAURANT 0 TO 100 SEATS,FULL MENU LIMITED SERVICE,40.0242133,-105.2517848,0,0,0.0,0.0,0.0
FA0000329,GOLD HILL GENERAL STORE AND PUB,531 MAIN ST BOULDER CO USA,RESTAURANT 0 TO 100 SEATS,FAST FOOD LIMITED MENU,40.0631739,-105.4101255,0,0,0.0,0.0,0.0
FA0000375,MICRO MOTION CAFE,7060 WINCHESTER CIR BOULDER CO USA,RESTAURANT 0 TO 100 SEATS,FULL MENU LIMITED SERVICE,40.0779996,-105.1936144,0,0,0.0,0.0,0.0
FA0001524,RESIDENCE INN LONGMONT,1450 DRY CREEK DR LONGMONT CO USA,RESTAURANT 0 TO 100 SEATS,FULL MENU LIMITED SERVICE,40.1398405,-105.1325654,0,0,0.0,0.0,0.0
FA0004836,GOLD'S GYM LONGMONT,1240 HOVER ST UNIT 200 LONGMONT CO USA,RESTAURANT 0 TO 100 SEATS,FAST FOOD LIMITED MENU,40.1463155,-105.1269071,0,0,0.0,0.0,0.0
FA0005034,CANDLEWOOD SUITES,1340 DRY CREEK DR LONGMONT CO USA,GROCERY STORE 0 TO 15000 SQ FT,GROCERY FINISHED FOODS,40.1424973,-105.1329583,0,0,0.0,0.0,0.0
FA0003664,BECLA (BAKERY INSIDE SAVE A LOT),1750 MAIN ST LONGMONT CO USA,RESTAURANT 0 TO 100 SEATS,GROCERY FINISHED FOODS,40.1909584,-105.1008524,0,0,0.0,0.0,0.0
FA0001381,HAYSTACK MOUNTAIN GOAT DAIRY,505 WEAVER PARK RD UNIT F LONGMONT CO USA,GROCERY STORE 0 TO 15000 SQ FT,GROCERY FINISHED FOODS,40.1618422,-105.0812236,0,0,0.0,0.0,0.0
FA0002703,TACO PALACE LONGMONT,305 KEN PRATT BLVD LONGMONT CO USA,RESTAURANT 0 TO 100 SEATS,FULL MENU LIMITED SERVICE,40.1519366,-105.0978029,0,0,0.0,0.0,0.0
FA0000962,TONIC ALCHEMY LOUNGE,2011 10TH ST BOULDER CO USA,LIMITED FOOD SERVICE CONVENIENCE OTHER,FULL SERVICE FULL MENU,40.0175798,-105.2829121,0,0,0.0,0.0,0.0
FA0000655,COVERED WAGON,15 E FIRST ST NEDERLAND CO USA,RESTAURANT 0 TO 100 SEATS,FULL SERVICE FULL MENU,39.96205339999999,-105.5100258,0,0,0.0,0.0,0.0
FA0001779,HOPI BREAD @ LMGT FARM MRKT (SPECIAL EVENT),2500 47th ST UNIT 18 BOULDER CO USA,SPECIAL EVENT,SPECIAL EVENT,40.0258297,-105.2432584,0,0,0.0,0.0,0.0
FA0003598,TORTILLERIA LA ESMERALDA(PRE-PKG FMRS MRKT),2393 27 ST UNIT 524 GREELEY CO USA,MOBILE UNIT PREPACKAGED,PRE PACKAGED,40.3942106,-104.718918,0,0,0.0,0.0,0.0
FA0002989,REBECCAS HERBAL APOTHECARY & S,1227 SPRUCE ST BOULDER CO USA,GROCERY STORE 0 TO 15000 SQ FT,GROCERY FINISHED FOODS,40.0192893,-105.2796892,0,0,0.0,0.0,0.0
FA0004750,AFC SUSHI (INSIDE SAFEWAY #1667),3333 ARAPAHOE RD ERIE CO USA,RESTAURANT 0 TO 100 SEATS,FULL MENU LIMITED SERVICE,40.0169254,-105.1007718,0,0,0.0,0.0,0.0
FA0002792,CENTURY THEATRE,1700 29TH ST BOULDER CO USA,RESTAURANT 0 TO 100 SEATS,FULL MENU LIMITED SERVICE,40.0172524,-105.2543182,0,0,0.0,0.0,0.0
FA0001362,LAS AMERICAS TORTILLERIA,830 LASHLEY ST STE D LONGMONT CO USA,GROCERY STORE W DELI 0 TO 15000 SQ FT,GROCERY FINISHED FOODS,40.1733333,-105.0877778,0,0,0.0,0.0,0.0
FA0003663,GUCKENHEIMER@ GOOGLE RED ROCKS (2600),2600 PEARL ST BOULDER CO USA,RESTAURANT 101 TO 200 SEATS,FULL SERVICE FULL MENU,40.0215496,-105.2602588,0,0,0.0,0.0,0.0
FA0004956,WHOLE FOODS MARKET,695 S BROADWAY ST BOULDER CO USA,GROCERY STORE W DELI MORE THAN 15000 SQ FT,GROCERY FINISHED FOODS,39.9829363,-105.2484627,0,0,0.0,0.0,0.0
FA0003243,DRY STORAGE,3601 ARAPAHOE UNIT D181 BOULDER CO USA,RESTAURANT 0 TO 100 SEATS,FULL MENU LIMITED SERVICE,40.0152135,-105.2482341,0,0,0.0,0.0,0.0
FA0003464,LA CHOZA #3,1203 13TH ST UNIT A BOULDER CO USA,RESTAURANT 0 TO 100 SEATS,FULL MENU LIMITED SERVICE,40.0088426,-105.2763961,0,0,0.0,0.0,0.0
FA0004866,ABUELITAS EMPANADAS,332 MAIN ST UNIT A5 LONGMONT CO USA,RESTAURANT 0 TO 100 SEATS,FAST FOOD LIMITED MENU,40.1646462,-105.1021878,0,0,0.0,0.0,0.0
FA0000510,LONGMONT PACKING 1 CARNICERIA,823 KEN PRATT BLVD LONGMONT CO USA,GROCERY STORE 0 TO 15000 SQ FT,GROCERY FINISHED FOODS,40.1516843,-105.1067555,0,0,0.0,0.0,0.0
FA0004942,SAM'S CLUB #4987,1200 S HOVER RD LONGMONT CO USA,GROCERY STORE W DELI MORE THAN 15000 SQ FT,GROCERY FINISHED FOODS,40.1490253,-105.1305046,0,0,0.0,0.0,0.0
FA0001260,UCAR,3080 CENTER GREEN DR BOULDER CO USA,RESTAURANT 101 TO 200 SEATS,FULL MENU LIMITED SERVICE,40.0319049,-105.2458517,0,0,0.0,0.0,0.0
FA0000446,HOPI BREAD @ BLDR FARM MRKT (SPECIAL EVENT),2500 47TH ST UNIT 18 BOULDER CO USA,SPECIAL EVENT,SPECIAL EVENT,40.0258297,-105.2432584,0,0,0.0,0.0,0.0
FA0001018,VILLAGE PLACE AT LONGMONT,600 COFFMAN ST LONGMONT CO USA,NO FEE LICENSE K12 SCHOOLS NON PROFIT,RESIDENTIAL FACILITIES,40.1692156,-105.1034823,0,0,0.0,0.0,0.0
FA0003791,SUPERIOR LIQUOR,100 SUPERIOR PLAZA WY SUPERIOR CO USA,GROCERY STORE 0 TO 15000 SQ FT,GROCERY FINISHED FOODS,39.9558144,-105.1652676,0,0,0.0,0.0,0.0
FA0000047,SAVE A LOT,1750 N MAIN ST LONGMONT CO USA,GROCERY STORE  MORE THAN 15000 SQ FT,GROCERY FINISHED FOODS,40.1909584,-105.1008524,0,0,0.0,0.0,0.0
FA0005179,LA RUE BAYOU (MOBILE),4920 PEARL ST UNIT D BOULDER CO USA,MOBILE UNIT FULL FOOD SERVICE,MOBILE UNITS,40.025388,-105.2377392,0,0,0.0,0.0,0.0
FA0004696,BOULDER INDOOR SOCCER,3203 PEARL ST BOULDER CO USA,RESTAURANT 0 TO 100 SEATS,FAST FOOD LIMITED MENU,40.02487139999999,-105.2501085,0,0,0.0,0.0,0.0
FA0001587,PANADERY Y NEVERIA GUANAJUATO,1630 MAIN ST UNIT LONGMONT CO USA,GROCERY STORE W DELI 0 TO 15000 SQ FT,GROCERY FINISHED FOODS,40.1873463,-105.1013656,0,0,0.0,0.0,0.0
FA0005435,STYRIA BAKERY @ LMGT FRM MRKT (SPECIAL EVENT),340 5TH ST Frederick CO USA,SPECIAL EVENT,SPECIAL EVENT,40.09831519999999,-104.9369233,0,0,0.0,0.0,0.0
FA0003336,SAVORY SAIGON COMISSARY (SPECIAL EVENT),1355 E S BOULDER RD UNIT C2 Louisville CO USA,SPECIAL EVENT,SPECIAL EVENT,39.98799899999999,-105.1255301,0,0,0.0,0.0,0.0
FA0000389,HAMPTON INN LOUISVILLE,912 W DILLON RD LOUISVILLE CO USA,RESTAURANT 0 TO 100 SEATS,FAST FOOD LIMITED MENU,39.9585308,-105.1627658,0,0,0.0,0.0,0.0
FA0004910,BASECAMP HOTEL,2020 ARAPAHOE AVE BOULDER CO USA,RESTAURANT 0 TO 100 SEATS,FULL MENU LIMITED SERVICE,40.0137568,-105.2684682,0,0,0.0,0.0,0.0
FA0000685,PERSIMMON GRILL AT LAKE VALLEY GOLF,4400 LAKE VALLEY DR LONGMONT CO USA,RESTAURANT 101 TO 200 SEATS,FULL SERVICE FULL MENU,40.0966294,-105.25148,0,0,0.0,0.0,0.0
FA0003452,KRISHNA GRANDE,400 W SOUTH BOULDER RD UNIT 2800 LAFAYETTE CO USA,GROCERY STORE 0 TO 15000 SQ FT,GROCERY FINISHED FOODS,39.9856206,-105.0950923,0,0,0.0,0.0,0.0
FA0004763,SILVER CANYON COFFEE DRIP BAR @ LMGT FRM MRKT (SPECIAL EVENT),5601 N BROADWAY ST BOULDER CO USA,SPECIAL EVENT,SPECIAL EVENT,40.0648486,-105.2818823,0,0,0.0,0.0,0.0
FA0005267,LAS DELICIAS (INSIDE SAVE-A-LOT),1750 N MAIN ST Longmont CO USA,RESTAURANT 0 TO 100 SEATS,FAST FOOD LIMITED MENU,40.1909584,-105.1008524,0,0,0.0,0.0,0.0
FA0002143,SAIGON EXPRESS,1225 KEN PRATT BLVD UNIT 110 LONGMONT CO USA,RESTAURANT 0 TO 100 SEATS,FULL SERVICE FULL MENU,40.1519532,-105.1143,0,0,0.0,0.0,0.0
FA0002855,SPROUTS FARMERS MARKET,2525 ARAPAHOE AVE UNIT E65 BOULDER CO USA,GROCERY STORE W DELI MORE THAN 15000 SQ FT,GROCERY FINISHED FOODS,40.0152398,-105.2600413,0,0,0.0,0.0,0.0
FA0004974,KONA ICE OF BOULDER (MOBILE),299 WALNUT ST Denver CO USA,MOBILE UNIT FULL FOOD SERVICE,MOBILE UNITS,39.7435348,-105.0152887,0,0,0.0,0.0,0.0
FA0000021,ROCKY MOUNTAIN PATHWAY RANCH,15747 HWY 7 ALLENSPARK CO USA,RESTAURANT 0 TO 100 SEATS,FULL MENU LIMITED SERVICE,40.1934368,-105.5112163,0,0,0.0,0.0,0.0
FA0002356,AMANTE UPTOWN,4580 BROADWAY ST UNIT A BOULDER CO USA,RESTAURANT 0 TO 100 SEATS,FAST FOOD LIMITED MENU,40.0575766,-105.2818477,0,0,0.0,0.0,0.0
FA0000770,BEST WESTERN PLUS,960 W DILLON RD LOUISVILLE CO USA,RESTAURANT 0 TO 100 SEATS,FAST FOOD LIMITED MENU,39.95985200000001,-105.1628572,0,0,0.0,0.0,0.0
FA0003255,LAUGHING GOAT NORLIN,1720 PLEASANT ST BOULDER CO USA,RESTAURANT 0 TO 100 SEATS,FAST FOOD LIMITED MENU,40.008826,-105.2704048,0,0,0.0,0.0,0.0
FA0003836,JFE (KS-102),1611 PACE ST LONGMONT CO USA,RESTAURANT 0 TO 100 SEATS,FULL MENU LIMITED SERVICE,40.186645,-105.0760629,0,0,0.0,0.0,0.0
FA0002527,CUGINI PIZZERIA,385 CROSSING DR UNIT 105 LAFAYETTE CO USA,RESTAURANT 0 TO 100 SEATS,FULL MENU LIMITED SERVICE,40.0012517,-105.1006805,0,0,0.0,0.0,0.0
FA0000350,CORNER THE,1100 13TH ST BOULDER CO USA,RESTAURANT 0 TO 100 SEATS,FAST FOOD LIMITED MENU,40.0074268,-105.2760395,0,0,0.0,0.0,0.0
FA0003782,JFE SNOWFOX KS061,1650 30TH ST BOULDER CO USA,RESTAURANT 0 TO 100 SEATS,FAST FOOD LIMITED MENU,40.0157862,-105.2518457,0,0,0.0,0.0,0.0
FA0004861,SPICE EXCHANGE,205 E WOODWARD AVE KEENSBURG CO USA,SPECIAL EVENT,SPECIAL EVENT,40.1095161,-104.5183298,0,0,0.0,0.0,0.0
FA0001406,CASPIAN DELI AND GROCERY,2607 PEARL ST BOULDER CO USA,RESTAURANT 0 TO 100 SEATS,GROCERY FINISHED FOODS,40.0220141,-105.2606057,0,0,0.0,0.0,0.0
FA0003551,BOULDER CREEK LODGE THE,55 LAKEVIEW DR NEDERLAND CO USA,RESTAURANT 0 TO 100 SEATS,FULL MENU LIMITED SERVICE,39.9610065,-105.5096595,0,0,0.0,0.0,0.0
FA0000462,LA QUINTA INN 952,902 DILLON RD LOUISVILLE CO USA,RESTAURANT 0 TO 100 SEATS,FAST FOOD LIMITED MENU,39.958752,-105.1619891,0,0,0.0,0.0,0.0
FA0000413,KING SOOPERS 80,995 S HOVER RD LONGMONT CO USA,GROCERY STORE W DELI MORE THAN 15000 SQ FT,GROCERY FINISHED FOODS,40.1505035,-105.1341187,0,0,0.0,0.0,0.0
FA0003815,WALGREENS #19547,3348 28TH ST BOULDER CO USA,LIMITED FOOD SERVICE CONVENIENCE OTHER,GROCERY FINISHED FOODS,40.0353486,-105.2572405,0,0,0.0,0.0,0.0
FA0003833,NORTH BOULDER LIQUOR,3990 N BROADWAY UNIT A BOULDER CO USA,GROCERY STORE 0 TO 15000 SQ FT,GROCERY FINISHED FOODS,40.047704,-105.281915,0,0,0.0,0.0,0.0
FA0002169,SUBWAY 30680,1635 PACE ST LONGMONT CO USA,RESTAURANT 0 TO 100 SEATS,FAST FOOD LIMITED MENU,40.1879212,-105.0746929,0,0,0.0,0.0,0.0
FA0000238,FANS CHINESE CUISINE,7960 NIWOT RD UNIT C9 NIWOT CO USA,RESTAURANT 0 TO 100 SEATS,FULL SERVICE FULL MENU,40.10004929999999,-105.1672438,0,0,0.0,0.0,0.0
FA0003583,CURED,1825 PEARL ST UNIT B BOULDER CO USA,RESTAURANT 0 TO 100 SEATS,FAST FOOD LIMITED MENU,40.0200071,-105.2714756,0,0,0.0,0.0,0.0
FA0000888,TEX MEX,424 MAIN ST LONGMONT CO USA,RESTAURANT 0 TO 100 SEATS,FULL SERVICE FULL MENU,40.1663106,-105.1021649,0,0,0.0,0.0,0.0
FA0003720,HAZELS BEVERAGE WORLD,1955 28th ST BOULDER CO USA,GROCERY STORE 0 TO 15000 SQ FT,GROCERY FINISHED FOODS,40.0207248,-105.2599845,0,0,0.0,0.0,0.0
FA0001408,TORTILLAS Y PANADERIA LAGUNA,1136 FRANCIS ST LONGMONT CO USA,RESTAURANT 0 TO 100 SEATS,FAST FOOD LIMITED MENU,40.1789721,-105.1160155,0,0,0.0,0.0,0.0
FA0001322,FOX HILL COUNTRY CLUB,1400 E HWY 119 LONGMONT CO USA,RESTAURANT MORE THAN 200 SEATS,FULL SERVICE FULL MENU,40.16107179999999,-105.0672947,0,0,0.0,0.0,0.0
FA0001237,TWISTED PINE BREWING COMPANY,3201 WALNUT ST UNIT A BOULDER CO USA,RESTAURANT 0 TO 100 SEATS,FAST FOOD LIMITED MENU,40.0208264,-105.251023,0,0,0.0,0.0,0.0
FA0005203,MOUNTAIN VIEW GRILL (MOBILE),4920 PEARL ST BOULDER CO USA,MOBILE UNIT FULL FOOD SERVICE,MOBILE UNITS,40.025388,-105.2377392,0,0,0.0,0.0,0.0
FA0000481,LOYAL ORDER OF MOOSE LONGMONT LODGE,2200 PRATT ST LONGMONT CO USA,RESTAURANT 0 TO 100 SEATS,FULL SERVICE FULL MENU,40.1970124,-105.1069013,0,0,0.0,0.0,0.0
FA0001258,JAMESTOWN MERCANTILE CAFE,108 MAIN ST JAMESTOWN CO USA,RESTAURANT 0 TO 100 SEATS,FULL MENU LIMITED SERVICE,35.9942835,-79.9353144,0,0,0.0,0.0,0.0
FA0003034,FLIGHT DECK GRILL (MOBILE),1509 9TH AVE LONGMONT CO USA,MOBILE UNIT FULL FOOD SERVICE,MOBILE UNITS,40.1738191,-105.1182895,0,0,0.0,0.0,0.0
FA0001512,COURTYARD BY MARRIOTT 1067,1410 DRY CREEK DR LONGMONT CO USA,RESTAURANT 0 TO 100 SEATS,FULL MENU LIMITED SERVICE,40.1406191,-105.1328852,0,0,0.0,0.0,0.0
FA0000191,CINEBARRE,1164 W DILLION RD LOUISVILLE CO USA,RESTAURANT MORE THAN 200 SEATS,FAST FOOD LIMITED MENU,39.9600563,-105.1677922,0,0,0.0,0.0,0.0
FA0003807,SPIRIT HOUND DISTILLERS,4196 UTE HWY LYONS CO USA,RESTAURANT 0 TO 100 SEATS,BARS FRATERNAL ORGANIZATIONS,40.2156532,-105.2560747,0,0,0.0,0.0,0.0
FA0000414,JOHN HAROLD BUCKLEY POST 32,315 S BOWEN ST LONGMONT CO USA,RESTAURANT 101 TO 200 SEATS,FULL SERVICE FULL MENU,40.1540914,-105.1124653,0,0,0.0,0.0,0.0
FA0003565,TIFFIN WALLAH,2416 ARAPAHOE AVE BOULDER CO USA,RESTAURANT 0 TO 100 SEATS,FULL MENU LIMITED SERVICE,40.0140542,-105.2626995,0,0,0.0,0.0,0.0
FA0001368,LOAF N JUG 95,200 LASHLEY ST LONGMONT CO USA,RESTAURANT 0 TO 100 SEATS,FAST FOOD LIMITED MENU,40.1629806,-105.0876633,0,0,0.0,0.0,0.0
FA0002526,HOLIDAY INN EXPRESS,4777 BROADWAY ST BOULDER CO USA,RESTAURANT 0 TO 100 SEATS,FAST FOOD LIMITED MENU,40.0612313,-105.2829086,0,0,0.0,0.0,0.0
FA0000903,NIWOT MARKET,7980 NIWOT RD Niwot CO USA,GROCERY STORE W DELI MORE THAN 15000 SQ FT,GROCERY FINISHED FOODS,40.1010572,-105.1670731,0,0,0.0,0.0,0.0
FA0002207,KING SOOPERS 135,480 N HWY 287 LAFAYETTE CO USA,GROCERY STORE W DELI MORE THAN 15000 SQ FT,GROCERY FINISHED FOODS,40.00185,-105.1017375,0,0,0.0,0.0,0.0
FA0001030,BOULDER COUNTY JAIL,3200 AIRPORT RD BOULDER CO USA,NO FEE LICENSE K12 SCHOOLS NON PROFIT,RESIDENTIAL FACILITIES,40.0342493,-105.2327265,0,0,0.0,0.0,0.0
FA0003781,JFE SUSHI (KS-80),995 S HOVER ST LONGMONT CO USA,RESTAURANT 0 TO 100 SEATS,FULL MENU LIMITED SERVICE,40.1505035,-105.1341187,0,0,0.0,0.0,0.0
FA0000137,BOULDER COUNTRY CLUB SNACK BAR,7350 CLUBHOUSE RD BOULDER CO USA,RESTAURANT 0 TO 100 SEATS,FAST FOOD LIMITED MENU,40.0651651,-105.1867747,0,0,0.0,0.0,0.0
FA0000555,MOUNTAIN PEOPLES COOP,30 E 1ST ST NEDERLAND CO USA,GROCERY STORE 0 TO 15000 SQ FT,GROCERY FINISHED FOODS,39.9617441,-105.5097114,0,0,0.0,0.0,0.0
FA0003391,NATURAL GROCERS BY VITAMIN COTTAGE,1745 N MAIN ST LONGMONT CO USA,GROCERY STORE 0 TO 15000 SQ FT,GROCERY FINISHED FOODS,40.19022750000001,-105.1038485,0,0,0.0,0.0,0.0
FA0005153,GREEN BELLY FOODS BLDR (MOBILE PRE-PKG),3605 MARTIN DR BOULDER CO USA,MOBILE UNIT PREPACKAGED,PRE PACKAGED,39.9920721,-105.2509085,0,0,0.0,0.0,0.0
FA0004507,RIVERSIDE,1724 BROADWAY ST BOULDER CO USA,RESTAURANT 101 TO 200 SEATS,FULL SERVICE FULL MENU,40.0145226,-105.2785702,0,0,0.0,0.0,0.0
FA0001046,BLUE OWL BOOKS,176 S HWY 119 NEDERLAND CO USA,RESTAURANT 0 TO 100 SEATS,FAST FOOD LIMITED MENU,39.95980720000001,-105.5105523,0,0,0.0,0.0,0.0
FA0001270,UCAR,1850 TABLE MESA DR BOULDER CO USA,RESTAURANT 101 TO 200 SEATS,FAST FOOD LIMITED MENU,39.9787054,-105.2747061,0,0,0.0,0.0,0.0
FA0000244,ELDORADO CORNER MARKET,1805 S FOOTHILLS HWY BOULDER CO USA,GROCERY STORE  MORE THAN 15000 SQ FT,GROCERY FINISHED FOODS,39.9538096,-105.232687,0,0,0.0,0.0,0.0
FA0003276,SPROUTS FARMERS MARKET,2950 BASELINE RD BOULDER CO USA,GROCERY STORE W DELI MORE THAN 15000 SQ FT,GROCERY FINISHED FOODS,39.999112,-105.2543698,0,0,0.0,0.0,0.0
FA0002137,BOULDER SHELTER FOR THE HOMELESS,4869 N BROADWAY ST BOULDER CO USA,NO FEE LICENSE K12 SCHOOLS NON PROFIT,RESIDENTIAL FACILITIES,40.0625866,-105.282617,0,0,0.0,0.0,0.0
FA0001179,YOUR BUTCHER FRANK III,900 COFFMAN ST A LONGMONT CO USA,GROCERY STORE W DELI 0 TO 15000 SQ FT,GROCERY FINISHED FOODS,40.1741162,-105.1033513,0,0,0.0,0.0,0.0
FA0000615,DOS WAPOS,1389 FOREST PARK CIR UNIT 102 LAFAYETTE CO USA,RESTAURANT 0 TO 100 SEATS,FULL SERVICE FULL MENU,40.014328,-105.128281,0,0,0.0,0.0,0.0
FA0005069,COOL BEADS (MOBILE),11450 BROOMFIELD LN Broomfield CO USA,MOBILE UNIT FULL FOOD SERVICE,MOBILE UNITS,39.904576,-105.085448,0,0,0.0,0.0,0.0
FA0003783,JFE SUSHI (KS-013),1375 E SOUTH BOULDER RD LOUISVILLE CO USA,RESTAURANT 0 TO 100 SEATS,FULL MENU LIMITED SERVICE,39.988326,-105.1242509,0,0,0.0,0.0,0.0
FA0001277,WALGREENS #19103,4800 BASELINE RD UNIT E107 BOULDER CO USA,LIMITED FOOD SERVICE CONVENIENCE OTHER,GROCERY FINISHED FOODS,39.9980269,-105.2328968,0,0,0.0,0.0,0.0
FA0001429,SENOR GOMEZ,502 S PUBLIC RD LAFAYETTE CO USA,RESTAURANT MORE THAN 200 SEATS,FULL SERVICE FULL MENU,39.9938644,-105.0900423,0,0,0.0,0.0,0.0
FA0001492,ELDORA MTN RESORT LOOKOUT RESTAURANT,2861 ELDORA SKI RD UNIT 140 NEDERLAND CO USA,RESTAURANT 0 TO 100 SEATS,FAST FOOD LIMITED MENU,39.9366134,-105.5884097,0,0,0.0,0.0,0.0
FA0000378,JESTERS PERFORMING ARTS,224 MAIN ST LONGMONT CO USA,RESTAURANT 0 TO 100 SEATS,FULL SERVICE FULL MENU,40.16280270000001,-105.1022334,0,0,0.0,0.0,0.0
FA0003584,SUR LA TABLE,1850 29TH ST UNIT 1004 BOULDER CO USA,RESTAURANT 0 TO 100 SEATS,FAST FOOD LIMITED MENU,40.0191498,-105.255439,0,0,0.0,0.0,0.0
FA0000252,AMERICAN LEGION POST 111,1150 PINE ST LOUISVILLE CO USA,LIMITED FOOD SERVICE CONVENIENCE OTHER,BARS FRATERNAL ORGANIZATIONS,39.9760918,-105.1286822,0,0,0.0,0.0,0.0
FA0005145,LAS CAZUELAS,917 MAIN ST LONGMONT CO USA,GROCERY STORE W DELI 0 TO 15000 SQ FT,GROCERY FINISHED FOODS,40.1745556,-105.1029186,0,0,0.0,0.0,0.0
FA0001116,WILD BASIN LODGE & EVENT CENTER,1130 84 COUNTY RD W ALLENSPARK CO USA,RESTAURANT 101 TO 200 SEATS,FULL SERVICE FULL MENU,37.2679338,-105.9096808,0,0,0.0,0.0,0.0
FA0000970,GARDEN GATE CAFE THE,1135 FRANCIS ST LONGMONT CO USA,RESTAURANT 0 TO 100 SEATS,FULL SERVICE FULL MENU,40.17898580000001,-105.1170561,0,0,0.0,0.0,0.0
FA0004954,RAYBACK COLLECTIVE,2775 VALMONT RD UNIT 2 BOULDER CO USA,RESTAURANT 0 TO 100 SEATS,BARS FRATERNAL ORGANIZATIONS,40.0295306,-105.2594038,0,0,0.0,0.0,0.0
FA0002338,NATURAL GROCERS BY VITAMIN COTTAGE,100 W SOUTH BOULDER RD LAFAYETTE CO USA,GROCERY STORE 0 TO 15000 SQ FT,GROCERY FINISHED FOODS,39.9863584,-105.0912715,0,0,0.0,0.0,0.0
FA0000304,COURTYARD BY MARRIOTT,4710 PEARL EAST CIR BOULDER CO USA,RESTAURANT 0 TO 100 SEATS,FULL SERVICE FULL MENU,40.0212524,-105.242931,0,0,0.0,0.0,0.0
FA0003742,STARBUCKS 21402,1352 COLLEGE AVE UNIT 115 BOULDER CO USA,LIMITED FOOD SERVICE CONVENIENCE OTHER,FAST FOOD LIMITED MENU,40.0071679,-105.2751944,0,0,0.0,0.0,0.0
FA0000447,EUREST DINING SERVICE AT IBM CANTEE,6300 DIAGONAL HWY BOULDER CO USA,RESTAURANT 101 TO 200 SEATS,FULL MENU LIMITED SERVICE,40.08903249999999,-105.1981362,0,0,0.0,0.0,0.0
FA0005030,SPRUCE CAFE,4740 PEARL ST UNIT 105 BOULDER CO USA,RESTAURANT 0 TO 100 SEATS,FULL MENU LIMITED SERVICE,40.0248318,-105.2426089,0,0,0.0,0.0,0.0
FA0000968,NCAR,3450 MITCHELL LN BLDG 2 BOULDER CO USA,RESTAURANT MORE THAN 200 SEATS,FULL MENU LIMITED SERVICE,40.0375653,-105.2418728,0,0,0.0,0.0,0.0
FA0005346,LONGMONT YOUTH CENTER,1050 LASHLEY ST Longmont CO USA,NO FEE LICENSE K12 SCHOOLS NON PROFIT,FULL SERVICE FULL MENU,40.177251,-105.0879373,0,0,0.0,0.0,0.0
FA0003502,CURE ORGANIC FARM (FARMERS MARKET),7416 VALMONT RD BOULDER CO USA,MOBILE UNIT PREPACKAGED,PRE PACKAGED,40.0327259,-105.1803587,0,0,0.0,0.0,0.0
FA0003521,COLORADO ATHLETIC CLUB,1821 E 30th ST UNIT B BOULDER CO USA,RESTAURANT 0 TO 100 SEATS,FULL MENU LIMITED SERVICE,40.0187496,-105.2548631,0,0,0.0,0.0,0.0
FA0000889,7 ELEVEN 41867,3334 ARAPAHOE RD ERIE CO USA,LIMITED FOOD SERVICE CONVENIENCE OTHER,FAST FOOD LIMITED MENU,40.0166075,-105.1022791,0,0,0.0,0.0,0.0
FA0000432,KOREA HOUSE,2750 GLENWOOD DR UNIT 4 BOULDER CO USA,RESTAURANT 0 TO 100 SEATS,FULL SERVICE FULL MENU,40.0323957,-105.2596712,0,0,0.0,0.0,0.0
FA0000773,YURIHANA,6525 GUNPARK DR UNIT 330 BOULDER CO USA,RESTAURANT 0 TO 100 SEATS,FULL SERVICE FULL MENU,40.07018739999999,-105.2004522,0,0,0.0,0.0,0.0
FA0000990,BOULDER BURGER,1310 COLLEGE AVE UNIT 210 BOULDER CO USA,RESTAURANT 0 TO 100 SEATS,FAST FOOD LIMITED MENU,40.0071181,-105.2759597,0,0,0.0,0.0,0.0
FA0002900,ALL TIME FAVORITES (SPECIAL EVENT),4472 HAYSTACK DR Windsor CO USA,SPECIAL EVENT,SPECIAL EVENT,40.4394218,-104.9508866,0,0,0.0,0.0,0.0
FA0003799,GOODY MONSTER,1310 COLLEGE AVE UNIT 235 BOULDER CO USA,RESTAURANT 0 TO 100 SEATS,FAST FOOD LIMITED MENU,40.0071181,-105.2759597,0,0,0.0,0.0,0.0
FA0001067,TORTILLAS DE LA FRONTERA,1630 N MAIN ST UNIT 105 LONGMONT CO USA,GROCERY STORE W DELI 0 TO 15000 SQ FT,GROCERY FINISHED FOODS,40.1873677,-105.1013433,0,0,0.0,0.0,0.0
FA0000743,WINOT COFFEE,7960 NIWOT RD UNIT D 13 NIWOT CO USA,RESTAURANT 0 TO 100 SEATS,FAST FOOD LIMITED MENU,40.10004929999999,-105.1672438,0,0,0.0,0.0,0.0
FA0000295,COLORADO ATHLETIC CLUB AT FLATIRONS,505 THUNDERBIRD DR BOULDER CO USA,RESTAURANT 0 TO 100 SEATS,FULL MENU LIMITED SERVICE,39.9962737,-105.2330988,0,0,0.0,0.0,0.0
FA0000256,BPOE LODGE 1055,306 COFFMAN ST LONGMONT CO USA,RESTAURANT 101 TO 200 SEATS,BARS FRATERNAL ORGANIZATIONS,40.1642415,-105.1034667,0,0,0.0,0.0,0.0
FA0000785,SUNSET GOLF COURSE,1900 LONGS PEAK AVE LONGMONT CO USA,RESTAURANT 0 TO 100 SEATS,FAST FOOD LIMITED MENU,40.1702863,-105.1222181,0,0,0.0,0.0,0.0
FA0000975,LUUS ASIAN CUISINE,1104 FRANCIS ST LONGMONT CO USA,RESTAURANT 0 TO 100 SEATS,FULL MENU LIMITED SERVICE,40.1780662,-105.1158913,0,0,0.0,0.0,0.0
FA0004627,LA LOMA CARNICERIA,4483 BROADWAY ST BOULDER CO USA,GROCERY STORE W DELI 0 TO 15000 SQ FT,GROCERY FINISHED FOODS,40.0560226,-105.2826137,0,0,0.0,0.0,0.0
FA0000782,SCROOGE MAKI,1107 13TH ST BOULDER CO USA,RESTAURANT 0 TO 100 SEATS,FULL MENU LIMITED SERVICE,40.0075099,-105.2764136,0,0,0.0,0.0,0.0
FA0000327,GLACIER VIEW RANCH,8748 OVERLAND RD WARD CO USA,RESTAURANT 0 TO 100 SEATS,FULL MENU LIMITED SERVICE,40.1249376,-105.4600528,0,0,0.0,0.0,0.0
FA0005092,SUNRISE BISON RANCH @ BLDR FARM MRKT (PRE-PKG),33558 COUNTY ROAD 50 RAMAH CO USA,MOBILE UNIT PREPACKAGED,PRE PACKAGED,40.3469572,-104.416715,0,0,0.0,0.0,0.0
FA0002441,OZO EAST PEARL,1521 PEARL ST UNIT B BOULDER CO USA,RESTAURANT 0 TO 100 SEATS,FAST FOOD LIMITED MENU,40.0190869,-105.2753813,0,0,0.0,0.0,0.0
FA0005182,MCDEVITT TACO SUPPLY,4800 BASELINE RD UNIT C110 BOULDER CO USA,RESTAURANT 0 TO 100 SEATS,FULL SERVICE FULL MENU,39.9980269,-105.2328968,0,0,0.0,0.0,0.0
FA0000242,ELDORA MOUNTAIN RESORT,2861 ELDORA SKI RD NEDERLAND CO USA,RESTAURANT 0 TO 100 SEATS,FAST FOOD LIMITED MENU,39.9366134,-105.5884097,0,0,0.0,0.0,0.0
FA0001210,SUPER TARGET 1769,400 MARSHALL RD SUPERIOR CO USA,GROCERY STORE W DELI MORE THAN 15000 SQ FT,GROCERY FINISHED FOODS,39.9556361,-105.1703511,0,0,0.0,0.0,0.0
FA0001338,ASIAN CUISINE AND VIETNAMESE,1627 COALTON RD SUPERIOR CO USA,RESTAURANT 0 TO 100 SEATS,FULL SERVICE FULL MENU,39.9295679,-105.1497666,0,0,0.0,0.0,0.0
FA0000009,AMERICAN LEGION BOULDER POST 10,4760 N 28TH AVE BOULDER CO USA,RESTAURANT 0 TO 100 SEATS,BARS FRATERNAL ORGANIZATIONS,40.0605914,-105.2735952,0,0,0.0,0.0,0.0
FA0002591,DAIRY CENTER FOR THE ARTS THE,2590 WALNUT ST BOULDER CO USA,RESTAURANT 0 TO 100 SEATS,FAST FOOD LIMITED MENU,40.0193233,-105.261078,0,0,0.0,0.0,0.0
FA0004595,SHOES AND BREWS,63 S PRATT PKWY UNIT B LONGMONT CO USA,RESTAURANT 0 TO 100 SEATS,FAST FOOD LIMITED MENU,40.1580744,-105.1072111,0,0,0.0,0.0,0.0
FA0003258,DANNYS TACOS,1751 HOVER ST UNIT C-1 LONGMONT CO USA,RESTAURANT 0 TO 100 SEATS,FULL MENU LIMITED SERVICE,40.1895254,-105.1312177,0,0,0.0,0.0,0.0
FA0000330,GOLD HILL INN,349 MAIN ST BOULDER CO USA,RESTAURANT 0 TO 100 SEATS,FULL SERVICE FULL MENU,40.0632368,-105.4087985,0,0,0.0,0.0,0.0
FA0003686,COMPASS GROUP USA (QUALCOMM),6190 SPINE RD BOULDER CO USA,RESTAURANT 0 TO 100 SEATS,FULL MENU LIMITED SERVICE,40.0665543,-105.209625,0,0,0.0,0.0,0.0
FA0001800,BOULDER COMMUNITY FOOTHILLS HOSPITAL,4747 ARAPAHOE AVE BOULDER CO USA,RESTAURANT 0 TO 100 SEATS,FULL MENU LIMITED SERVICE,40.0163695,-105.2363882,0,0,0.0,0.0,0.0
FA0000972,BELEZA COFFEE BAR,2680 BROADWAY ST BOULDER CO USA,RESTAURANT 0 TO 100 SEATS,FAST FOOD LIMITED MENU,40.0252868,-105.2810327,0,0,0.0,0.0,0.0
FA0000567,NEDERLAND COMMUNITY CENTER,750 N HWY 72 NEDERLAND CO USA,NO FEE LICENSE K12 SCHOOLS NON PROFIT,FULL MENU LIMITED SERVICE,39.9646611,-105.5120895,0,0,0.0,0.0,0.0
FA0000959,COSMOS PIZZA,3117 28TH ST BOULDER CO USA,RESTAURANT 0 TO 100 SEATS,FULL MENU LIMITED SERVICE,40.0310906,-105.2590401,0,0,0.0,0.0,0.0
FA0004834,RATS WOODSHACK (MOBILE),2500 47TH ST UNIT F BOULDER CO USA,MOBILE UNIT FULL FOOD SERVICE,MOBILE UNITS,40.0258297,-105.2432584,0,0,0.0,0.0,0.0
FA0002076,MICI,535 W SOUTH BOULDER RD STE 260 LAFAYETTE CO USA,RESTAURANT 0 TO 100 SEATS,FULL SERVICE FULL MENU,39.9876824,-105.0954735,0,0,0.0,0.0,0.0
FA0004982,OUR CENTER,220 COLLYER ST LONGMONT CO USA,NO FEE LICENSE K12 SCHOOLS NON PROFIT,FULL SERVICE FULL MENU,40.1630974,-105.0976659,0,0,0.0,0.0,0.0
FA0000713,RESIDENCE INN BY MARRIOTT LOUISVILLE,845 COAL CREEK CIR LOUISVILLE CO USA,RESTAURANT 0 TO 100 SEATS,FULL MENU LIMITED SERVICE,39.9574146,-105.1581966,0,0,0.0,0.0,0.0
FA0001642,EDIBLE ARRANGEMENTS,1629 28TH ST UNIT 102 BOULDER CO USA,RESTAURANT 0 TO 100 SEATS,FAST FOOD LIMITED MENU,40.0153754,-105.2591132,0,0,0.0,0.0,0.0
FA0003711,BLUE REEF SEAFOOD MARKET,900 COFFMAN ST UNIT C LONGMONT CO USA,GROCERY STORE 0 TO 15000 SQ FT,FAST FOOD LIMITED MENU,40.1744298,-105.1032952,0,0,0.0,0.0,0.0
FA0000430,KING SOOPERS 13,1375 SOUTH BOULDER RD LOUISVILLE CO USA,GROCERY STORE W DELI MORE THAN 15000 SQ FT,GROCERY FINISHED FOODS,39.988326,-105.1242509,0,0,0.0,0.0,0.0
FA0005256,MCDEVITT TACO SUPPLY (MOBILE),4800 BASELINE RD UNIT C110 Boulder CO USA,MOBILE UNIT FULL FOOD SERVICE,MOBILE UNITS,39.9980269,-105.2328968,0,0,0.0,0.0,0.0
FA0000118,AVISTA HOSPITAL,100 HEALTH PARK DR LOUISVILLE CO USA,RESTAURANT 0 TO 100 SEATS,RESIDENTIAL FACILITIES,39.9519333,-105.1517462,0,0,0.0,0.0,0.0
FA0002561,BOULDER PHO & MILK TEA,2321 CLOVER BASIN DR LONGMONT CO USA,RESTAURANT 0 TO 100 SEATS,FULL SERVICE FULL MENU,40.143716,-105.1320739,0,0,0.0,0.0,0.0
FA0000150,CANYON CAFE,1777 6TH ST BOULDER CO USA,RESTAURANT 0 TO 100 SEATS,FAST FOOD LIMITED MENU,40.0143562,-105.2887003,0,0,0.0,0.0,0.0
FA0004951,JEANNOTS PATISSERIE & BISTRO,2770 ARAPAHOE RD UNIT 124 LAFAYETTE CO USA,RESTAURANT 0 TO 100 SEATS,FULL MENU LIMITED SERVICE,40.013305,-105.1322911,0,0,0.0,0.0,0.0
FA0004784,RAKKAN RAMEN,1650 28TH ST Unit 1228 BOULDER CO USA,RESTAURANT 0 TO 100 SEATS,FAST FOOD LIMITED MENU,40.0166539,-105.2579263,0,0,0.0,0.0,0.0
FA0000496,LOLITAS MARKET & DELI,800 PEARL ST BOULDER CO USA,GROCERY STORE W DELI 0 TO 15000 SQ FT,GROCERY FINISHED FOODS,40.0166477,-105.2849266,0,0,0.0,0.0,0.0
FA0002871,MEADOW LARK FARM DINNERS (MOBILE),4593 BROADWAY ST BOULDER CO USA,MOBILE UNIT FULL FOOD SERVICE,MOBILE UNITS,40.0579532,-105.2827137,0,0,0.0,0.0,0.0
FA0001630,TACOS GTO,516 MAIN ST LONGMONT CO USA,RESTAURANT 101 TO 200 SEATS,FULL SERVICE FULL MENU,40.168074,-105.1022791,0,0,0.0,0.0,0.0
FA0000661,JANUARY COFFEE,1886 30TH ST UNIT B BOULDER CO USA,RESTAURANT 0 TO 100 SEATS,FAST FOOD LIMITED MENU,40.0194791,-105.2516056,0,0,0.0,0.0,0.0
FA0003913,NEVERIA LA ZUMBA,1131 FRANCIS ST UNIT A LONGMONT CO USA,RESTAURANT 0 TO 100 SEATS,FAST FOOD LIMITED MENU,40.1787502,-105.1170169,0,0,0.0,0.0,0.0
FA0003680,LA MOMO MAES BAKERY,900 S HOVER ST UNIT F LONGMONT CO USA,RESTAURANT 0 TO 100 SEATS,FULL MENU LIMITED SERVICE,40.1514448,-105.1301698,0,0,0.0,0.0,0.0
FA0000834,CASIAN SEAFOOD,211 N PUBLIC RD UNIT 110 LAFAYETTE CO USA,RESTAURANT 0 TO 100 SEATS,FULL SERVICE FULL MENU,39.9999146,-105.0906787,0,0,0.0,0.0,0.0
FA0002385,BEST PHO,1377 FOREST PARK CIR UNIT 102 LAFAYETTE CO USA,RESTAURANT 0 TO 100 SEATS,FULL SERVICE FULL MENU,40.01402239999999,-105.1294202,0,0,0.0,0.0,0.0
FA0005308,SEBS PIZZAS (MOBILE),1219 ROCK CREEK CIR UNIT 1 LAFAYETTE CO USA,MOBILE UNIT FULL FOOD SERVICE,MOBILE UNITS,39.9745169,-105.0726392,0,0,0.0,0.0,0.0
FA0005035,AREPAS CARIBBEAN FOOD (MOBILE),243 TERRY ST UNIT E Longmont CO USA,MOBILE UNIT FULL FOOD SERVICE,MOBILE UNITS,40.1632809,-105.105545,0,0,0.0,0.0,0.0
FA0004632,IZZIO ARTISAN BAKERY LMGT FARMER MKT,197 S 104TH ST LOUISVILLE CO USA,SPECIAL EVENT,SPECIAL EVENT,39.9681487,-105.1102727,0,0,0.0,0.0,0.0
FA0004515,BOSS LADY PIZZA,1613 COALTON RD SUPERIOR CO USA,RESTAURANT 0 TO 100 SEATS,FAST FOOD LIMITED MENU,39.9299969,-105.1494925,0,0,0.0,0.0,0.0
FA0002157,RUBY RUS,1280 CENTAUR VILLAGE DR UNIT 1 LAFAYETTE CO USA,RESTAURANT 0 TO 100 SEATS,FAST FOOD LIMITED MENU,39.9875867,-105.1074805,0,0,0.0,0.0,0.0
FA0000435,CASA AGAVE,451 S PRATT PKWY LONGMONT CO USA,RESTAURANT 101 TO 200 SEATS,FULL SERVICE FULL MENU,40.1536324,-105.107395,0,0,0.0,0.0,0.0
FA0003455,LAUDISIO 2 (MOBILE),1837 PEARL ST Boulder CO USA,MOBILE UNIT FULL FOOD SERVICE,MOBILE UNITS,40.0199161,-105.2711326,0,0,0.0,0.0,0.0
FA0005425,IZOTE LATIN FOOD #3 (MOBILE),2510 47TH ST UNIT B100 Boulder CO USA,MOBILE UNIT FULL FOOD SERVICE,MOBILE UNITS,40.026162,-105.2427945,0,0,0.0,0.0,0.0
FA0005121,PLACERITA RANCH (PRE-PKG MOBILE)@ BC FMRS MRKT,1725 SKYWAY DR UNIT 170 Longmont CO USA,MOBILE UNIT PREPACKAGED,PRE PACKAGED,40.1581674,-105.0226617,0,0,0.0,0.0,0.0
FA0001215,GRILL AT COAL CREEK THE,585 W DILLON RD LOUISVILLE CO USA,RESTAURANT 0 TO 100 SEATS,FULL MENU LIMITED SERVICE,39.9585447,-105.152074,0,0,0.0,0.0,0.0
FA0005434,CHEESE LOVE GRILL 2 (MOBILE),4986 E MORRISON RD Denver CO USA,MOBILE UNIT FULL FOOD SERVICE,MOBILE UNITS,39.6979964,-105.0508555,0,0,0.0,0.0,0.0
FA0000092,GEMINI,1115 PEARL ST BOULDER CO USA,RESTAURANT 101 TO 200 SEATS,FULL SERVICE FULL MENU,40.017885,-105.2808233,0,0,0.0,0.0,0.0
FA0005141,SKYPILOT FARM #1 @ FMR MRKT,10384 AIRPORT RD LONGMONT CO USA,MOBILE UNIT PREPACKAGED,SPECIAL EVENT,40.1629001,-105.1497666,0,0,0.0,0.0,0.0
FA0005264,PASTIFICIO BOULDER @ BLDR FARM MRKT,2438 30TH ST Boulder CO USA,MOBILE UNIT PREPACKAGED,PRE PACKAGED,40.0257082,-105.2523434,0,0,0.0,0.0,0.0
FA0000108,MONO MONO KFC,599 CROSSING DR LAFAYETTE CO USA,RESTAURANT 101 TO 200 SEATS,FULL SERVICE FULL MENU,40.0034456,-105.1016396,0,0,0.0,0.0,0.0
FA0002867,BASIL BOWL,1302 CENTAUR VILLAGE DR LAFAYETTE CO USA,RESTAURANT 0 TO 100 SEATS,FULL MENU LIMITED SERVICE,39.9858315,-105.1069648,0,0,0.0,0.0,0.0
FA0003562,WAFFLE LAB THE,1155 13TH ST BOULDER CO USA,RESTAURANT 0 TO 100 SEATS,FULL MENU LIMITED SERVICE,40.0083475,-105.2765761,0,0,0.0,0.0,0.0
FA0000236,SHORTSTOP FAIRVIEW,7498 E ARAPAHOE RD BOULDER CO USA,GROCERY STORE W DELI 0 TO 15000 SQ FT,GROCERY FINISHED FOODS,39.5942668,-104.9035909,0,0,0.0,0.0,0.0
FA0004969,JUICE BEE THE,1048 PEARL ST UNIT 109 BOULDER CO USA,LIMITED FOOD SERVICE CONVENIENCE OTHER,FAST FOOD LIMITED MENU,40.0171379,-105.2817021,0,0,0.0,0.0,0.0
FA0003470,GURKHAS DUMPLING AND CURRY HOUSE,2525 ARAPAHOE AVE UNIT H-5B BOULDER CO USA,RESTAURANT 0 TO 100 SEATS,FULL SERVICE FULL MENU,40.0152398,-105.2600413,0,0,0.0,0.0,0.0
FA0005246,TACOS LA FAMILIA #1 (MOBILE),800 S HOVER ST UNIT 9 Longmont CO USA,MOBILE UNIT FULL FOOD SERVICE,MOBILE UNITS,40.1517016,-105.1277685,0,0,0.0,0.0,0.0
FA0003849,TIMES COLLABORATIVE THE,338 MAIN ST LONGMONT CO USA,RESTAURANT 0 TO 100 SEATS,RETAIL COMMISSARY,40.164739,-105.1023022,0,0,0.0,0.0,0.0
FA0004493,GUCKENHEIMER@ GOOGLE (GRAB & GO),2590 PEARL ST BOULDER CO USA,GROCERY STORE 0 TO 15000 SQ FT,GROCERY FINISHED FOODS,40.0213656,-105.2612052,0,0,0.0,0.0,0.0
FA0005393,GUCKENHEIMER@ GOOGLE - COUNTER THE,3333 WALNUT ST Boulder CO USA,RESTAURANT 0 TO 100 SEATS,FULL SERVICE FULL MENU,40.0202053,-105.2489631,0,0,0.0,0.0,0.0
FA0005508,GUCKENHEIMER@ 2600 BARISTA,2600 PEARL ST Boulder CO USA,LIMITED FOOD SERVICE CONVENIENCE OTHER,FAST FOOD LIMITED MENU,40.0215496,-105.2602588,0,0,0.0,0.0,0.0
FA0000667,TIP TOP SAVORY PIES,6565 GUNPARK DR UNIT 190 BOULDER CO USA,RESTAURANT 0 TO 100 SEATS,FULL SERVICE FULL MENU,40.0711303,-105.2004071,0,0,0.0,0.0,0.0
FA0004626,BIG DADDYS TEXAS BBQ (MOBILE),2510 47th ST 201 BOULDER CO USA,MOBILE UNIT FULL FOOD SERVICE,MOBILE UNITS,40.0261809,-105.242967,0,0,0.0,0.0,0.0
FA0001017,TUNE UP AT FULL CYCLE,2355 30TH ST BOULDER CO USA,LIMITED FOOD SERVICE CONVENIENCE OTHER,FAST FOOD LIMITED MENU,40.0246411,-105.2541237,0,0,0.0,0.0,0.0
FA0005236,HAMPTON INN & SUITES,317 EXEMPLA CIR Lafayette CO USA,RESTAURANT 0 TO 100 SEATS,FAST FOOD LIMITED MENU,39.9728325,-105.0871152,0,0,0.0,0.0,0.0
FA0005534,MAINE EVENT THE (MOBILE),338 MAIN ST Longmont CO USA,MOBILE UNIT FULL FOOD SERVICE,MOBILE UNITS,40.164739,-105.1023022,0,0,0.0,0.0,0.0
FA0002478,SPRINGHILL SUITES BOULDER LONGMONT,1470 DRY CREEK DR LONGMONT CO USA,RESTAURANT 0 TO 100 SEATS,FULL MENU LIMITED SERVICE,40.13909659999999,-105.1331593,0,0,0.0,0.0,0.0
FA0003605,MCCASLIN THAI,316 S MCCASLIN BLVD LOUISVILLE CO USA,RESTAURANT 0 TO 100 SEATS,FULL SERVICE FULL MENU,39.96546230000001,-105.1614907,0,0,0.0,0.0,0.0
FA0001432,ORANGE TENT THE (SPECIAL EVENT),5575 55TH ST Boulder CO USA,SPECIAL EVENT,SPECIAL EVENT,39.9924359,-105.2200076,0,0,0.0,0.0,0.0
FA0005066,FAIRWAYS GOLF,1 SUPERIOR DR SUPERIOR CO USA,LIMITED FOOD SERVICE CONVENIENCE OTHER,FAST FOOD LIMITED MENU,39.9527344,-105.158882,0,0,0.0,0.0,0.0
FA0003326,"PRICKLY PEAR TAVERN, THE",160 E MAIN ST LYONS CO USA,RESTAURANT 0 TO 100 SEATS,FULL SERVICE FULL MENU,40.2229118,-105.2651252,0,0,0.0,0.0,0.0
FA0004744,DIZZY FAMILY FUN CENTER (TEMPORARY EVENT),455 WEAVER PARK RD LONGMONT CO USA,TEMP EVENT ON SITE PREP,TEMPORARY EVENTS,40.1617384,-105.0825938,0,0,0.0,0.0,0.0
FA0000491,(CU) LIBBY DINING CENTER,UNIVERSITY OF COLORADO BOULDER CO USA,RESTAURANT MORE THAN 200 SEATS,RESIDENTIAL FACILITIES,40.00758099999999,-105.2659417,0,0,0.0,0.0,0.0
FA0000159,AVANTI F&B COMMISSARY & BARS,1401 PEARL ST BOULDER CO USA,RESTAURANT 0 TO 100 SEATS,RETAIL COMMISSARY,40.018652,-105.2771752,0,0,0.0,0.0,0.0
FA0004858,MY NEIGHBOR FELIX,901 PEARL ST BOULDER CO USA,RESTAURANT 101 TO 200 SEATS,FULL SERVICE FULL MENU,40.0173605,-105.2835411,0,0,0.0,0.0,0.0
FA0002645,BIRDCALL 29TH ST,1675 29TH ST UNIT 1284 BOULDER CO USA,RESTAURANT 0 TO 100 SEATS,FULL MENU LIMITED SERVICE,40.0163558,-105.2566462,0,0,0.0,0.0,0.0
FA0004663,COFFEE BAR MEDTRONIC BOULDER,5920 LONGBOW DR UNIT 2 BOULDER CO USA,LIMITED FOOD SERVICE CONVENIENCE OTHER,FAST FOOD LIMITED MENU,40.0640238,-105.2155232,0,0,0.0,0.0,0.0
FA0001072,SPOTTED JAMES THE,1911 11TH ST UNIT 100 BOULDER CO USA,LIMITED FOOD SERVICE CONVENIENCE OTHER,BARS FRATERNAL ORGANIZATIONS,40.0169521,-105.2813363,0,0,0.0,0.0,0.0
FA0005510,CROSSING NUTRITION THE,1455 COAL CREEK DR Lafayette CO USA,LIMITED FOOD SERVICE CONVENIENCE OTHER,FAST FOOD LIMITED MENU,39.985591,-105.096899,0,0,0.0,0.0,0.0
FA0000038,HOLY CREPE,1650 BROADWAY ST BOULDER CO USA,RESTAURANT 0 TO 100 SEATS,FULL SERVICE FULL MENU,40.0139508,-105.2782063,0,0,0.0,0.0,0.0
FA0002274,SWAYLOS TIKI,1315 DRY CREEK DR LONGMONT CO USA,RESTAURANT MORE THAN 200 SEATS,FULL SERVICE FULL MENU,40.1431666,-105.1348953,0,0,0.0,0.0,0.0
FA0003637,R GALLERY,2027 BROADWAY BOULDER CO USA,RESTAURANT 0 TO 100 SEATS,FULL MENU LIMITED SERVICE,40.0184225,-105.2805154,0,0,0.0,0.0,0.0
FA0005097,FAROW,7916 NIWOT RD UNIT 100 LONGMONT CO USA,RESTAURANT 0 TO 100 SEATS,FULL SERVICE FULL MENU,40.1013599,-105.1687535,0,0,0.0,0.0,0.0
FA0000926,DIA Y NOCHE CAFE,830 LASHLEY ST UNIT G LONGMONT CO USA,RESTAURANT 0 TO 100 SEATS,FULL SERVICE FULL MENU,40.1733055,-105.087283,0,0,0.0,0.0,0.0
FA0000800,GHOST BOX PIZZA,103 S PUBLIC RD LAFAYETTE CO USA,RESTAURANT 101 TO 200 SEATS,FULL SERVICE FULL MENU,39.9979618,-105.0908376,0,0,0.0,0.0,0.0
FA0004792,CU ATHLETICS,2150 STADIUM DR BOULDER CO USA,RESTAURANT 0 TO 100 SEATS,FULL SERVICE FULL MENU,40.0092353,-105.2679383,0,0,0.0,0.0,0.0
FA0001350,VIET KITCHEN (AT ATLAS VALLEY),2770 ARAPAHOE RD UNIT 116 LAFAYETTE CO USA,RESTAURANT 0 TO 100 SEATS,FULL SERVICE FULL MENU,40.0135444,-105.1329667,0,0,0.0,0.0,0.0
FA0003471,META BURGER,1905 S 29TH ST UNIT 1174 BOULDER CO USA,RESTAURANT 0 TO 100 SEATS,FULL MENU LIMITED SERVICE,40.0204769,-105.256543,0,0,0.0,0.0,0.0
FA0005024,JFE SUSHI SC4987 (INSIDE SAMS CLUB),1200 S HOVER ST Longmont CO USA,RESTAURANT 0 TO 100 SEATS,GROCERY FINISHED FOODS,40.1490253,-105.1305046,0,0,0.0,0.0,0.0
FA0005405,HIGHLAND CITY CLUB,885 ARAPAHOE AVE Boulder CO USA,RESTAURANT 0 TO 100 SEATS,FULL MENU LIMITED SERVICE,40.01337770000001,-105.2841223,0,0,0.0,0.0,0.0
FA0001175,QUARTERS BAR+ARCADE,475 MAIN ST LONGMONT CO USA,LIMITED FOOD SERVICE CONVENIENCE OTHER,FAST FOOD LIMITED MENU,40.1671915,-105.1027115,0,0,0.0,0.0,0.0
FA0004936,COSMOS PIZZA,520 W SOUTH BOULDER RD UNIT C LAFAYETTE CO USA,RESTAURANT 0 TO 100 SEATS,FULL MENU LIMITED SERVICE,39.9865489,-105.0967752,0,0,0.0,0.0,0.0
FA0005554,ROSETTA HALL STALL 2,1109 WALNUT ST Boulder CO USA,RESTAURANT 0 TO 100 SEATS,FAST FOOD LIMITED MENU,40.0170388,-105.2806943,0,0,0.0,0.0,0.0
FA0005166,WYATTS WINES AND SPIRITS,1250 S HOVER RD UNIT C-100 LONGMONT CO USA,RESTAURANT 0 TO 100 SEATS,FULL SERVICE FULL MENU,40.1454795,-105.1306569,0,0,0.0,0.0,0.0
FA0005218,MARRIOTT RESIDENCE INN,2550 CANYON BLVD Boulder CO USA,RESTAURANT 0 TO 100 SEATS,FULL MENU LIMITED SERVICE,40.0168462,-105.2609065,0,0,0.0,0.0,0.0
FA0005422,NO QUE NO (MOBILE),4920 PEARL ST UNIT D Boulder CO USA,MOBILE UNIT FULL FOOD SERVICE,MOBILE UNITS,40.025388,-105.2377392,0,0,0.0,0.0,0.0
FA0000794,CANYON MARKET PLACE,1601 DRY CREEK DR LONGMONT CO USA,RESTAURANT 0 TO 100 SEATS,FULL SERVICE FULL MENU,40.1394925,-105.1357634,0,0,0.0,0.0,0.0
FA0000251,TEOCALLI COCINA,103 N PUBLIC RD UNIT C LAFAYETTE CO USA,RESTAURANT 101 TO 200 SEATS,FULL SERVICE FULL MENU,39.9984366,-105.090651,0,0,0.0,0.0,0.0
FA0001243,ROSETTA HALL STALL 10 BAR,1109 WALNUT ST BOULDER CO USA,LIMITED FOOD SERVICE CONVENIENCE OTHER,FAST FOOD LIMITED MENU,40.0170388,-105.2806943,0,0,0.0,0.0,0.0
FA0003315,TORTILLERIA LAS 5 AMERICAS,111 S PUBLIC RD LAFAYETTE CO USA,GROCERY STORE W DELI 0 TO 15000 SQ FT,FULL MENU LIMITED SERVICE,39.9979618,-105.0908376,0,0,0.0,0.0,0.0
FA0005208,VEGETABLE EXPRESS THE (MOBILE),750 HWY 72N Nederland CO USA,MOBILE UNIT FULL FOOD SERVICE,MOBILE UNITS,39.9613759,-105.5108312,0,0,0.0,0.0,0.0
FA0005211,HILTON GARDEN INN - BOULDER,2701 CANYON BLVD BOULDER CO USA,RESTAURANT 101 TO 200 SEATS,FULL SERVICE FULL MENU,40.018142,-105.2589568,0,0,0.0,0.0,0.0
FA0005451,INN BETWEEN THE (PANTRY),515 KIMBARK ST Longmont CO USA,NO FEE LICENSE K12 SCHOOLS NON PROFIT,FOOD BANK,40.1680148,-105.1015483,0,0,0.0,0.0,0.0
FA0003331,SIMPLY BULK MARKET,418 MAIN ST LONGMONT CO USA,GROCERY STORE 0 TO 15000 SQ FT,GROCERY FINISHED FOODS,40.1661884,-105.1022275,0,0,0.0,0.0,0.0
FA0000237,FALAFEL KING,1314 PEARL ST BOULDER CO USA,RESTAURANT 0 TO 100 SEATS,FAST FOOD LIMITED MENU,40.0180273,-105.2781567,0,0,0.0,0.0,0.0
FA0005506,SCRATCH (INSIDE 300 SUNS BREWING),335 1ST AVE Longmont CO USA,RESTAURANT 0 TO 100 SEATS,FULL MENU LIMITED SERVICE,40.1599201,-105.1012742,0,0,0.0,0.0,0.0
FA0005535,SPRUCE CAFE,3775 DISCOVERY DR Boulder CO USA,LIMITED FOOD SERVICE CONVENIENCE OTHER,FAST FOOD LIMITED MENU,40.0100042,-105.2438869,0,0,0.0,0.0,0.0
FA0004873,LAS X AMERICAS TORTILLERIA Y CARNICERIA,2887 30TH ST BOULDER CO USA,GROCERY STORE W DELI 0 TO 15000 SQ FT,GROCERY FINISHED FOODS,40.0284999,-105.254269,0,0,0.0,0.0,0.0
FA0005296,SAVANNAH BEE COMPANY,1222 PEARL ST UNIT B Boulder CO USA,RESTAURANT 0 TO 100 SEATS,FULL MENU LIMITED SERVICE,40.0177234,-105.2792527,0,0,0.0,0.0,0.0
FA0005067,PHO HUONG VIET,1232 S HOVER ST UNIT C200 LONGMONT CO USA,RESTAURANT 0 TO 100 SEATS,FULL SERVICE FULL MENU,40.1476325,-105.1295059,0,0,0.0,0.0,0.0
FA0005455,SWEET DOODLES FROYO,1 SUPERIOR DR Superior CO USA,LIMITED FOOD SERVICE CONVENIENCE OTHER,FAST FOOD LIMITED MENU,39.9527344,-105.158882,0,0,0.0,0.0,0.0
FA0005223,LONGS PEAK GROCERY MARKET,1125 FRANCIS ST LONGMONT CO USA,GROCERY STORE W DELI 0 TO 15000 SQ FT,GROCERY FINISHED FOODS,40.1785816,-105.116948,0,0,0.0,0.0,0.0
FA0005130,AMPERSAND COFFEE ROASTER,6560 ODELL PL UNIT C BOULDER CO USA,LIMITED FOOD SERVICE CONVENIENCE OTHER,FAST FOOD LIMITED MENU,40.0732478,-105.2009287,0,0,0.0,0.0,0.0
FA0004851,CARIBOU ROOM THE,55 INDIAN PEAKS DR NEDERLAND CO USA,RESTAURANT 0 TO 100 SEATS,FULL MENU LIMITED SERVICE,39.9708827,-105.5088785,0,0,0.0,0.0,0.0
FA0005330,HARVEST OF HOPE PANTRY,2960 VALMONT RD Boulder CO USA,NO FEE LICENSE K12 SCHOOLS NON PROFIT,FOOD BANK,40.0287394,-105.2545939,0,0,0.0,0.0,0.0
FA0000093,BOULDER MARRIOTT,2660 CANYON BLVD BOULDER CO USA,RESTAURANT 101 TO 200 SEATS,FULL SERVICE FULL MENU,40.0161241,-105.2601208,0,0,0.0,0.0,0.0
FA0005021,LE FRIGO,5360 ARAPAHOE AVE UNIT B2 BOULDER CO USA,RESTAURANT 0 TO 100 SEATS,FULL MENU LIMITED SERVICE,40.0137711,-105.2278653,0,0,0.0,0.0,0.0
FA0004995,PEARL STREET GRILL (COMMISSARY),2510 47TH ST BOULDER CO USA,RESTAURANT 0 TO 100 SEATS,FAST FOOD LIMITED MENU,40.026162,-105.2427945,0,0,0.0,0.0,0.0
FA0000303,COURTYARD LOUISVILLE MARRIOTT,948 W DILLON RD LOUISVILLE CO USA,RESTAURANT 0 TO 100 SEATS,FULL MENU LIMITED SERVICE,39.9588916,-105.1635883,0,0,0.0,0.0,0.0
FA0005299,GROWING GARDENS,1630 HAWTORN AVE Boulder CO USA,RESTAURANT 0 TO 100 SEATS,FAST FOOD LIMITED MENU,40.0342053,-105.2759756,0,0,0.0,0.0,0.0
FA0005212,EMBASSY SUITES BOULDER,2601 CANYON BLVD BOULDER CO USA,RESTAURANT 101 TO 200 SEATS,FULL SERVICE FULL MENU,40.0181589,-105.2601158,0,0,0.0,0.0,0.0
FA0004686,COMMUNITY FOOD SHARE,650 S TAYLOR AVE LOUISVILLE CO USA,NO FEE LICENSE K12 SCHOOLS NON PROFIT,FOOD BANK,39.9597417,-105.1192259,0,0,0.0,0.0,0.0
FA0000176,CENTENNIAL PEAKS HOSPITAL,2255 S 88TH AVE LOUISVILLE CO USA,RESTAURANT 0 TO 100 SEATS,RESIDENTIAL FACILITIES,39.9520207,-105.1480533,0,0,0.0,0.0,0.0
FA0005143,LONGS PEAK HOSPITAL,1750 E KEN PRATT BLVD LONGMONT CO USA,RESTAURANT 0 TO 100 SEATS,FAST FOOD LIMITED MENU,40.162172,-105.058116,0,0,0.0,0.0,0.0
FA0005377,FRONT RANGE COMMUNITY COLLEGE (PANTRY),2121 MILLER DR Longmont CO USA,NO FEE LICENSE K12 SCHOOLS NON PROFIT,FOOD BANK,40.1391717,-105.1274345,0,0,0.0,0.0,0.0
FA0005414,EFAA,1575 YARMOUTH AVE BOULDER CO USA,NO FEE LICENSE K12 SCHOOLS NON PROFIT,FOOD BANK,40.0584715,-105.2777082,0,0,0.0,0.0,0.0
FA0005402,TIP TOP SAVORY PIES LLC,105-A N PUBLIC RD Lafayette CO USA,GROCERY STORE 0 TO 15000 SQ FT,GROCERY FINISHED FOODS,39.9986822,-105.0910589,0,0,0.0,0.0,0.0
FA0004970,MENTAL HEALTH PARTNERS RYAN WELLNESS CENTER,1000 ALPINE AVE BOULDER CO USA,RESTAURANT 0 TO 100 SEATS,DAY TREATMENT PROGRAM,40.0253234,-105.2842087,0,0,0.0,0.0,0.0
FA0005473,ALTAVITA INDEPENDENT LIVING,1002 ALTA VITA CT LONGMONT CO USA,RESTAURANT 0 TO 100 SEATS,RESIDENTIAL FACILITIES,40.1494709,-105.1364528,0,0,0.0,0.0,0.0
FA0005424,BIG LOTS #4685,2151 MAIN ST Longmont CO USA,GROCERY STORE 0 TO 15000 SQ FT,GROCERY FINISHED FOODS,40.1972884,-105.1026221,0,0,0.0,0.0,0.0
FA0005326,BOULDER COUNTY AIDS PROJECT (PANTRY),2118 14TH ST Boulder CO USA,NO FEE LICENSE K12 SCHOOLS NON PROFIT,FOOD BANK,40.01994080000001,-105.2776077,0,0,0.0,0.0,0.0
