facilityId,facilityName,concat_address,typeOfFacility,categoryOfFacility,origin_lat,origin_long,google_lat,google_long
FA0003323,RUNZA,1743 MAIN ST LONGMONT CO USA,RESTAURANT 0 TO 100 SEATS,FULL MENU LIMITED SERVICE,40.189746, -105.102332,40.1897717,-105.1026674
FA0000616,FRANKS CHOP HOUSE,921 WALNUT ST BOULDER CO USA,RESTAURANT MORE THAN 200 SEATS,FULL SERVICE FULL MENU,40.016235, -105.282759,40.0165533,-105.2828453
FA0004494,ROASTED TOAD BBQ THE,229 HWY 119 NEDERLAND CO USA,RESTAURANT 0 TO 100 SEATS,FULL MENU LIMITED SERVICE,,,39.9631805,-105.5095941
FA0003893,FAIR ISLE COFFEE CO @ LGMT FARM MRKT,237 COLLYER ST Longmont CO USA,SPECIAL EVENT,SPECIAL EVENT,40.163078, -105.098175,40.1630767,-105.0985565
FA0003472,TODS ESPRESSO CAFE,6558 LOOKOUT RD BOULDER CO USA,LIMITED FOOD SERVICE CONVENIENCE OTHER,FAST FOOD LIMITED MENU,40.072805, -105.20104,40.0721707,-105.2008731
FA0003618,CARNICERIA EL CERRITO,936 MAIN ST LONGMONT CO USA,GROCERY STORE 0 TO 15000 SQ FT,GROCERY FINISHED FOODS,40.175326, -105.102459,40.1753769,-105.102119
FA0002790,PALETERIA LA MICHOACANA,2130 N MAIN ST UNIT 1 LONGMONT CO USA,RESTAURANT 0 TO 100 SEATS,FAST FOOD LIMITED MENU,40.196791, -105.102409,40.196846,-105.1009613
FA0001363,TIBETS RESTAURANT AND BAR,321 S MCCASLIN BLVD LOUISVILLE CO USA,RESTAURANT 0 TO 100 SEATS,FULL SERVICE FULL MENU,39.96672, -105.16353,39.9666052,-105.1639878
FA0000878,UTE CREEK GOLF COURSE,2000 UTE CREEK DR LONGMONT CO USA,RESTAURANT 0 TO 100 SEATS,FAST FOOD LIMITED MENU,40.195844, -105.067285,40.1892487,-105.0638812
FA0004983,LEVY IPF 1 (MOBILE),2400 COLORADO AVE BOULDER CO USA,MOBILE UNIT FULL FOOD SERVICE,MOBILE UNITS,40.008231, -105.264147,40.0091912,-105.2669142
FA0005140,BOULDER BEEF (MOBILE PRE-PKG),24249 COUNTY RD Lasalle CO USA,MOBILE UNIT PREPACKAGED,PRE PACKAGED,,,40.3202837,-103.6914147
FA0000679,QDOBA MEXICAN GRILL #2030,1625 28TH ST BOULDER CO USA,RESTAURANT 0 TO 100 SEATS,FAST FOOD LIMITED MENU,40.015368, -105.258483,40.0153594,-105.2589612
FA0005261,MOUNTAIN VIEW GRILL 2  (MOBILE),101 E BISON HWY Hudson CO USA,MOBILE UNIT FULL FOOD SERVICE,MOBILE UNITS,,,40.0780884,-104.6503559
FA0000100,CUPPA HOUSE COFFEE & TEA,1102 FRANCIS ST LONGMONT CO USA,RESTAURANT 0 TO 100 SEATS,FULL MENU LIMITED SERVICE,40.177678, -105.116527,40.1779437,-105.1160281
FA0003437,(CU) C4C THE BAKERY,2249 WILLARD LOOP DR UNIT N170 BOULDER CO USA,RESTAURANT 0 TO 100 SEATS,FULL MENU LIMITED SERVICE,40.004705, -105.265864,40.0045248,-105.2649229
FA0005083,AREPA JOINT THE (MOBILE),4920 PEARL ST UNIT C&D BOULDER CO USA,MOBILE UNIT FULL FOOD SERVICE,MOBILE UNITS,40.025673, -105.238076,40.025388,-105.2377392
FA0003541,WOOD GRAIN BAGELS,2525 ARAPAHOE AVE UNIT E 1A BOULDER CO USA,RESTAURANT 0 TO 100 SEATS,FULL MENU LIMITED SERVICE,40.014691, -105.262043,40.0152398,-105.2600413
FA0000024,ABOS PIZZA SOUTH,637 S BROADWAY ST UNIT S BOULDER CO USA,RESTAURANT 0 TO 100 SEATS,FAST FOOD LIMITED MENU,39.984339, -105.248924,39.7050752,-104.9875752
FA0001380,BIG DADDY BAGELS,489 N HWY 287 STE 110 LAFAYETTE CO USA,RESTAURANT 0 TO 100 SEATS,FULL MENU LIMITED SERVICE,40.002189, -105.102991,40.0021108,-105.1040148
FA0001344,GOLDEN SUN,1635 28TH ST BOULDER CO USA,RESTAURANT 0 TO 100 SEATS,FULL SERVICE FULL MENU,40.015597, -105.258477,40.0153921,-105.2592216
FA0001169,SUBWAY,3070 28TH ST UNIT F BOULDER CO USA,RESTAURANT 0 TO 100 SEATS,FAST FOOD LIMITED MENU,40.031035, -105.258424,40.0307571,-105.257608
FA0001247,BLUE CORN TACOS,1515 N MAIN ST UNIT 6 LONGMONT CO USA,RESTAURANT 0 TO 100 SEATS,FAST FOOD LIMITED MENU,40.185769, -105.102333,40.1852151,-105.1030732
FA0004603,NIWOT WHEEL WORKS,101 2ND AVE NIWOT CO USA,RESTAURANT 0 TO 100 SEATS,FULL MENU LIMITED SERVICE,40.103499, -105.172734,40.1032048,-105.17291
FA0000018,DISH GOURMET,1918 PEARL ST STE 100 BOULDER CO USA,RESTAURANT 0 TO 100 SEATS,FAST FOOD LIMITED MENU,40.019899, -105.270213,40.0197052,-105.2701856
FA0002382,JEFES,246 MAIN ST LONGMONT CO USA,RESTAURANT 0 TO 100 SEATS,FULL SERVICE FULL MENU,40.163628, -105.102518,40.1636193,-105.1021192
FA0001306,LA CHOZA #2,4457 N BROADWAY ST BOULDER CO USA,RESTAURANT 0 TO 100 SEATS,FULL MENU LIMITED SERVICE,40.055463, -105.282115,40.055516,-105.2827313
FA0000200,BOULDER DUSHANBE TEA HOUSE,1770 13TH ST BOULDER CO USA,RESTAURANT 101 TO 200 SEATS,FULL SERVICE FULL MENU,40.015593, -105.277767,40.0154468,-105.2772448
FA0000966,SNARFS,5340 ARAPAHOE AVE UNIT J BOULDER CO USA,RESTAURANT 0 TO 100 SEATS,FAST FOOD LIMITED MENU,40.01461, -105.228345,40.0141309,-105.2284171
FA0000027,ARAPAHOE MEAT CO,12420 ARAPAHOE RD LAFAYETTE CO USA,GROCERY STORE W DELI 0 TO 15000 SQ FT,GROCERY FINISHED FOODS,40.014795, -105.061412,40.014688,-105.06203
FA0003002,CHOP 5 SALAD KTICHEN,2525 ARAPAHOE RD UNIT H6 BOULDER CO USA,RESTAURANT 0 TO 100 SEATS,FULL MENU LIMITED SERVICE,40.014691, -105.26231,40.0149546,-105.2596866
FA0001149,PINOCCHIOS,300 2ND AVE NIWOT CO USA,RESTAURANT 0 TO 100 SEATS,FULL SERVICE FULL MENU,40.1021, -105.1707,40.10239809999999,-105.1706024
FA0001299,KTS BBQ,7464 ARAPAHOE RD BOULDER CO USA,RESTAURANT 0 TO 100 SEATS,FAST FOOD LIMITED MENU,40.014567, -105.179181,40.0143988,-105.1792848
FA0000057,AUNT ALICES KITCHEN,1805 N MAIN ST LONGMONT CO USA,RESTAURANT 101 TO 200 SEATS,FULL SERVICE FULL MENU,40.191008, -105.10234,40.1910351,-105.1030099
FA0000502,LUCILES CREOLE CAFE,518 KIMBARK ST LONGMONT CO USA,RESTAURANT 0 TO 100 SEATS,FULL SERVICE FULL MENU,40.168199, -105.10119,40.1682067,-105.1008403
FA0004579,BABA & POPS (MOBILE PRE-PKG),9945 E COLFAX AVE Aurora CO USA,MOBILE UNIT PREPACKAGED,PRE PACKAGED,39.740201, -104.872383,39.7403183,-104.8723906
FA0004505,SMOKIN BOWLS,449 MAIN ST LONGMONT CO USA,RESTAURANT 0 TO 100 SEATS,FULL MENU LIMITED SERVICE,40.166729, -105.102509,40.1667218,-105.1028957
FA0000287,BOULDER GS,2990 DIAGONAL HWY BOULDER CO USA,GROCERY STORE 0 TO 15000 SQ FT,GROCERY FINISHED FOODS,40.037781, -105.254229,40.0373005,-105.2541246
FA0001319,(CU)  FARRAND ALLEY,2200 BARKER DR BOULDER CO USA,RESTAURANT 0 TO 100 SEATS,FULL SERVICE FULL MENU,,,40.0060088,-105.2657756
FA0004526,TOKYO JOES,15 E KEN PRATT BLVD LONGMONT CO USA,RESTAURANT 0 TO 100 SEATS,FULL MENU LIMITED SERVICE,,,40.1603592,-105.0549504
FA0001273,SCRUMPTIOUS,508 MAIN ST LONGMONT CO USA,RESTAURANT 0 TO 100 SEATS,FAST FOOD LIMITED MENU,40.167824, -105.102507,40.1678203,-105.1023253
FA0000346,LYONS DAIRY BAR,138 E MAIN ST UNIT 1 LYONS CO USA,RESTAURANT 0 TO 100 SEATS,FAST FOOD LIMITED MENU,,,40.22239560000001,-105.2645581
FA0000665,JAVA STOP,301 MAIN ST LONGMONT CO USA,RESTAURANT 0 TO 100 SEATS,FAST FOOD LIMITED MENU,40.164221, -105.102516,40.1641823,-105.1027359
FA0002421,EGGLOO DELIGHTS (SPECIAL EVENT),1515 MAIN ST LONGMONT CO USA,SPECIAL EVENT,SPECIAL EVENT,40.185769, -105.102333,40.18535079999999,-105.103147
FA0000731,COSMOS PIZZA,659 3OTH ST BOULDER CO USA,RESTAURANT 0 TO 100 SEATS,FAST FOOD LIMITED MENU,,,39.9988213,-105.2537345
FA0002869,PANDA EXPRESS #1635,2100 28TH ST UNIT 1-A BOULDER CO USA,RESTAURANT 0 TO 100 SEATS,FULL MENU LIMITED SERVICE,40.023577, -105.258313,40.02392589999999,-105.2574575
FA0000476,LUCILES CREOLE CAFE,2124 14TH ST BOULDER CO USA,RESTAURANT 0 TO 100 SEATS,FULL SERVICE FULL MENU,40.020019, -105.277922,40.0200908,-105.2776533
FA0003850,GOAT AT THE GARAGE THE,2907 55TH ST BOULDER CO USA,RESTAURANT 0 TO 100 SEATS,FAST FOOD LIMITED MENU,40.028116, -105.225354,40.027848,-105.2267007
FA0000666,JAX FISH HOUSE,928 PEARL ST BOULDER CO USA,RESTAURANT 0 TO 100 SEATS,FULL SERVICE FULL MENU,40.017202, -105.283305,40.0170094,-105.2831766
FA0002979,LA PUPUSA LOCA (MOBILE),637 S BROADWAY ST UNIT G1 Boulder CO USA,MOBILE UNIT FULL FOOD SERVICE,MOBILE UNITS,39.984339, -105.248924,39.7050752,-104.9875752
FA0004967,LA FAMILIA (MOBILE),4920 PEARL ST UNIT C/D Boulder CO USA,MOBILE UNIT FULL FOOD SERVICE,MOBILE UNITS,40.025673, -105.238076,40.025388,-105.2377392
FA0001266,FRASIER MEADOWS MANOR KITCHEN,350 PONCA PL BOULDER CO USA,RESTAURANT 0 TO 100 SEATS,RESIDENTIAL FACILITIES,39.994156, -105.235084,39.99422,-105.2341427
FA0003410,LUCKY PIE PIZZA,637 FRONT ST LOUISVILLE CO USA,RESTAURANT 101 TO 200 SEATS,FULL SERVICE FULL MENU,39.976525, -105.130783,39.9765788,-105.1311641
FA0000442,HOMEWOOD SUITES BOULDER,4950 BASELINE RD BOULDER CO USA,RESTAURANT 0 TO 100 SEATS,FULL MENU LIMITED SERVICE,40.000015, -105.232703,39.9973834,-105.2326884
FA0005285,GREAT OUTDOORS WATER PARK THE,500 S BOULDER RD Lafayette CO USA,RESTAURANT 0 TO 100 SEATS,FAST FOOD LIMITED MENU,39.986785, -105.082785,39.9863975,-105.0846261
FA0000521,MEEKER PARK LODGE,11733 COLO  7 HWY ALLENSPARK CO USA,GROCERY STORE 0 TO 15000 SQ FT,GROCERY FINISHED FOODS,,,40.2356189,-105.5297838
FA0000654,CASA ALEGRE,1006 PINE ST LOUISVILLE CO USA,RESTAURANT 0 TO 100 SEATS,FULL SERVICE FULL MENU,39.976845, -105.130373,39.9767355,-105.1303268
FA0004972,COMMUNITY CUPBOARD FOOD BANK,14863 W HWY 7 ALLENSPARK CO USA,NO FEE LICENSE K12 SCHOOLS NON PROFIT,FOOD BANK,40.196204, -105.527436,40.19648660000001,-105.5271916
FA0001261,ROCK CREEK TAVERN & PIZZERIA,6 SKI RD ALLENSPARK CO USA,RESTAURANT 0 TO 100 SEATS,FULL MENU LIMITED SERVICE,40.194528, -105.525328,40.1946126,-105.5256342
FA0004497,CHINA GOURMET - LONGMONT,1345 DRY CREEK DR LONGMONT CO USA,RESTAURANT 101 TO 200 SEATS,FULL MENU LIMITED SERVICE,40.142685, -105.133979,40.1424332,-105.1345298
FA0001251,BLACK CAT,1964 13TH ST BOULDER CO USA,RESTAURANT 0 TO 100 SEATS,FULL SERVICE FULL MENU,40.017825, -105.278567,40.0178929,-105.2784009
FA0005450,LA BARRA DEL SAZON (MOBILE),2350 N MAIN ST Longmont CO USA,MOBILE UNIT FULL FOOD SERVICE,MOBILE UNITS,40.201287, -105.102384,40.2013638,-105.101731
FA0003837,CAFE MEXICALI,2850 BASELINE RD UNIT C BOULDER CO USA,RESTAURANT 0 TO 100 SEATS,FULL SERVICE FULL MENU,40.000046, -105.256081,39.9998179,-105.2560976
FA0000943,RINCON DEL SOL,2350 ARAPAHOE AVE BOULDER CO USA,RESTAURANT 101 TO 200 SEATS,FULL SERVICE FULL MENU,40.014615, -105.263882,40.014385,-105.2635761
FA0002315,JAIPUR INDIAN RESTAURANT,1800 BROADWAY ST UNIT 160 BOULDER CO USA,RESTAURANT 0 TO 100 SEATS,FULL SERVICE FULL MENU,40.01639, -105.279448,40.0167633,-105.279051
FA0000724,LUCKYS CAFE,3980 BROADWAY ST BOULDER CO USA,RESTAURANT 0 TO 100 SEATS,FULL SERVICE FULL MENU,40.047525, -105.282086,40.047736,-105.280695
FA0005003,COMMUNITY,206 S PUBLIC RD LAFAYETTE CO USA,RESTAURANT 0 TO 100 SEATS,FULL SERVICE FULL MENU,39.996628, -105.090451,39.996652,-105.090221
FA0002506,ROSARIOS RESTAURANT,625 KEN PRATT BLVD LONGMONT CO USA,RESTAURANT 0 TO 100 SEATS,FULL SERVICE FULL MENU,40.152357, -105.103903,40.15168980000001,-105.1040145
FA0002718,JAMBA JUICE @ UMC (CU),1669 EUCLID AVE UMC 154 BOULDER CO USA,RESTAURANT 0 TO 100 SEATS,FAST FOOD LIMITED MENU,40.005924, -105.271062,40.006295,-105.2719745
FA0000798,WATERLOO THE,817 MAIN ST LOUISVILLE CO USA,RESTAURANT 101 TO 200 SEATS,FULL SERVICE FULL MENU,39.978184, -105.132143,39.9781583,-105.1324512
FA0000467,MOJO TAQUERIA,2785 IRIS AVE BOULDER CO USA,RESTAURANT 0 TO 100 SEATS,FULL SERVICE FULL MENU,40.036464, -105.259289,40.037234,-105.258958
FA0004847,TERIYAKI MADNESS 208,1232 S HOVER ST UNIT C100 LONGMONT CO USA,RESTAURANT 0 TO 100 SEATS,FULL MENU LIMITED SERVICE,40.145147, -105.13073,40.1473207,-105.1289563
FA0003739,JUNGLE,2018 10TH ST BOULDER CO USA,RESTAURANT 0 TO 100 SEATS,FULL MENU LIMITED SERVICE,40.017624, -105.282702,40.01779570000001,-105.2825984
FA0001138,LAS PALMERAS RESTAURANT,199 S MAIN ST LONGMONT CO USA,RESTAURANT 101 TO 200 SEATS,FULL SERVICE FULL MENU,40.155273, -105.10255,40.1550759,-105.1030099
FA0000630,FLATIRON COFFEE,2721 ARAPAHOE AVE BOULDER CO USA,RESTAURANT 0 TO 100 SEATS,FAST FOOD LIMITED MENU,40.014694, -105.259345,40.015,-105.2591928
FA0002345,QDOBA MEXICAN EATS #2186,2301 CLOVER BASIN DR LONGMONT CO USA,RESTAURANT 101 TO 200 SEATS,FULL MENU LIMITED SERVICE,40.144107, -105.132586,40.1436962,-105.1319486
FA0005025,FRESH THYMES MARKETPLACE,2690 28TH ST UNIT F BOULDER CO USA,RESTAURANT 0 TO 100 SEATS,FULL MENU LIMITED SERVICE,40.027017, -105.258403,40.0270674,-105.2575251
FA0003809,TRES REYNAS,2690 28TH ST UNIT G BOULDER CO USA,GROCERY STORE 0 TO 15000 SQ FT,GROCERY FINISHED FOODS,40.027017, -105.258403,40.0270353,-105.2575883
FA0001283,GABEE COFFEE,3040 28TH ST BOULDER CO USA,RESTAURANT 0 TO 100 SEATS,FAST FOOD LIMITED MENU,40.03008, -105.25841,40.0299891,-105.2579121
FA0000848,RUSTY MELON THE,6525 GUNPARK DR UNIT 380 BOULDER CO USA,RESTAURANT 0 TO 100 SEATS,FULL SERVICE FULL MENU,40.070008, -105.201443,40.0702236,-105.2007782
FA0004885,PARRYS PIZZA VI,1232 S HOVER ST UNIT A100 LONGMONT CO USA,RESTAURANT 0 TO 100 SEATS,FULL SERVICE FULL MENU,40.145147, -105.13073,40.1473207,-105.1289563
FA0001278,GAIA CAFE,833 W SOUTH BOULDER RD BLDG G LOUISVILLE CO USA,RESTAURANT 0 TO 100 SEATS,FULL MENU LIMITED SERVICE,39.986916, -105.15858,39.9876442,-105.1567344
FA0000942,UBON THAI CUISINE,155 HWY 119 E NEDERLAND CO USA,RESTAURANT 0 TO 100 SEATS,FULL SERVICE FULL MENU,,,39.964973,-105.503948
FA0001595,PANDA EXPRESS #2313 (CU),1669 EUCLID AVE UNIT 179 BOULDER CO USA,RESTAURANT 0 TO 100 SEATS,FULL MENU LIMITED SERVICE,40.005924, -105.271062,40.0065706,-105.2717488
FA0002657,NATIVE FOODS CAFE,1675 29TH ST UNIT 1272 BOULDER CO USA,RESTAURANT 0 TO 100 SEATS,FAST FOOD LIMITED MENU,40.015386, -105.256062,40.0164918,-105.256509
FA0001493,BOULDER PHO,2855 28TH ST BOULDER CO USA,RESTAURANT 0 TO 100 SEATS,FULL SERVICE FULL MENU,40.028205, -105.258399,40.0280832,-105.2592832
FA0003319,LITTLE CAESARS,1020 KEN PRATT BLVD LONGMONT CO USA,RESTAURANT 0 TO 100 SEATS,FAST FOOD LIMITED MENU,40.152326, -105.110301,40.153007,-105.1094505
FA0000110,BURGER KING #4690,2020 KEN PRATT BLVD LONGMONT CO USA,RESTAURANT 0 TO 100 SEATS,FAST FOOD LIMITED MENU,40.144177, -105.127007,40.1445969,-105.1272432
FA0002592,RED FROG COFFEE,15 KEN PRATT BLVD LONGMONT CO USA,RESTAURANT 0 TO 100 SEATS,FAST FOOD LIMITED MENU,40.152351, -105.093599,40.1519236,-105.0937835
FA0003376,DOLLAR TREE #4357,210 KEN PRATT BLVD LONGMONT CO USA,GROCERY STORE 0 TO 15000 SQ FT,GROCERY FINISHED FOODS,40.152544, -105.096644,40.1538085,-105.0993102
FA0003267,MODMARKET,1600 28TH ST UNIT 1212 BOULDER CO USA,RESTAURANT 0 TO 100 SEATS,FAST FOOD LIMITED MENU,40.018321, -105.258281,40.0157307,-105.2579097
FA0000808,SUBWAY #17932 @ UMC  (CU),1669 EUCLID AVE BOULDER CO USA,RESTAURANT 0 TO 100 SEATS,FAST FOOD LIMITED MENU,40.005924, -105.271062,40.0065706,-105.2717488
FA0004908,AFC SUSHI @ SAFEWAY #2919,4800 E BASELINE RD BOULDER CO USA,RESTAURANT 0 TO 100 SEATS,FULL MENU LIMITED SERVICE,40.000017, -105.234005,40.0001973,-105.040687
FA0002311,RUSH,1207 13TH ST BOULDER CO USA,RESTAURANT 0 TO 100 SEATS,FAST FOOD LIMITED MENU,40.008705, -105.276221,40.0088837,-105.2763482
FA0002874,ZOE MA MA,2010 10TH ST BOULDER CO USA,RESTAURANT 0 TO 100 SEATS,FULL MENU LIMITED SERVICE,40.017599, -105.282693,40.017612,-105.2825531
FA0000112,BURGER KING 7062,5320 SPINE RD BOULDER CO USA,RESTAURANT 0 TO 100 SEATS,FAST FOOD LIMITED MENU,40.071253, -105.202144,40.0712081,-105.2016325
FA0004554,COLORADO CHAUTAUQUA ASSOCIATION,900 BASELINE RD BOULDER CO USA,LIMITED FOOD SERVICE CONVENIENCE OTHER,FAST FOOD LIMITED MENU,40.000068, -105.28138,40.000023,-105.2819456
FA0003365,BARKING DOG CAFE,431 MAIN ST LYONS CO USA,RESTAURANT 0 TO 100 SEATS,FAST FOOD LIMITED MENU,40.224674, -105.270659,40.2245169,-105.2706624
FA0005127,PASSPORT FOOD TRUCK,555 30TH ST BOULDER CO USA,MOBILE UNIT FULL FOOD SERVICE,MOBILE UNITS,39.997772, -105.253004,39.9983767,-105.2539852
FA0000124,ASTRO COFFEE BAR,2052 BROADWAY ST BOULDER CO USA,LIMITED FOOD SERVICE CONVENIENCE OTHER,FAST FOOD LIMITED MENU,40.018603, -105.28023,40.0185643,-105.2800076
FA0001182,CHINA 88,1600 HOVER ST UNIT C2 LONGMONT CO USA,RESTAURANT 0 TO 100 SEATS,FAST FOOD LIMITED MENU,40.187007, -105.130921,40.1874008,-105.1294251
FA0000714,PIZZA COLORE,1336 PEARL ST BOULDER CO USA,RESTAURANT 0 TO 100 SEATS,FULL SERVICE FULL MENU,40.018358, -105.277797,40.0181034,-105.2777314
FA0002162,DELI ZONE,5365 SPINE RD UNIT A BOULDER CO USA,RESTAURANT 0 TO 100 SEATS,FAST FOOD LIMITED MENU,40.07177, -105.202152,40.0718154,-105.2027984
FA0005347,EATS & SWEETS (MOBILE),401 S PUBLIC RD Lafayette CO USA,MOBILE UNIT FULL FOOD SERVICE,MOBILE UNITS,39.994999, -105.09046,39.9949449,-105.0906777
FA0002651,CURRY N KEBOB,3050 28TH ST BOULDER CO USA,RESTAURANT 0 TO 100 SEATS,FULL MENU LIMITED SERVICE,40.03008, -105.25841,40.0301285,-105.2578785
FA0004837,BOULDER DEPOT ROADHOUSE THE,2366 JUNCTION PL BOULDER CO USA,RESTAURANT MORE THAN 200 SEATS,FULL SERVICE FULL MENU,,,40.0249157,-105.2510914
FA0001355,DELI ZONE,4800 BASELINE RD UNIT D104 BOULDER CO USA,RESTAURANT 0 TO 100 SEATS,FAST FOOD LIMITED MENU,40.000017, -105.234005,39.9986036,-105.2346008
FA0001514,NOODLES AND COMPANY #125,1087 S HOVER RD UNIT D LONGMONT CO USA,RESTAURANT 101 TO 200 SEATS,FAST FOOD LIMITED MENU,40.147641, -105.130866,40.1472872,-105.1314164
FA0004651,VFW POST 1771,110 E SOUTH BOULDER RD LAFAYETTE CO USA,LIMITED FOOD SERVICE CONVENIENCE OTHER,BARS FRATERNAL ORGANIZATIONS,39.98687, -105.089541,39.9864999,-105.0894674
FA0005372,THERE WITH CARE (PANTRY),2825 WILDERNESS PL UNIT 100 Boulder CO USA,NO FEE LICENSE K12 SCHOOLS NON PROFIT,FOOD BANK,40.025919, -105.248834,40.0256766,-105.2492018
FA0003265,BIG DADDY BAGELS,1940 IONOSPHERE ST LONGMONT CO USA,RESTAURANT 0 TO 100 SEATS,FAST FOOD LIMITED MENU,40.135636, -105.103531,40.1355777,-105.1031926
FA0004769,OASIS,1450 N MAIN ST LONGMONT CO USA,RESTAURANT 0 TO 100 SEATS,FAST FOOD LIMITED MENU,40.184675, -105.102339,40.1847151,-105.1020507
FA0000633,PEACEFUL MEADOW  RETREAT,7075 VALMONT DR BOULDER CO USA,RESTAURANT 0 TO 100 SEATS,FULL MENU LIMITED SERVICE,,,40.0368638,-105.1895442
FA0004641,NOODLES & COMPANY #168,534 W SOUTH BOULDER RD UNIT A LAFAYETTE CO USA,RESTAURANT 0 TO 100 SEATS,FAST FOOD LIMITED MENU,39.986901, -105.096467,39.9866766,-105.0974375
FA0003891,WHEEL & WHISK THE (MOBILE),5706 N ARAPAHOE AVE Boulder CO USA,MOBILE UNIT FULL FOOD SERVICE,MOBILE UNITS,40.014574, -105.220496,40.0114098,-105.2206426
FA0000365,TACO STAR,2020 N MAIN ST LONGMONT CO USA,RESTAURANT 0 TO 100 SEATS,FAST FOOD LIMITED MENU,40.194353, -105.102369,40.1945031,-105.1018338
FA0004736,FLAVOR OF INDIA,370 MAIN ST LONGMONT CO USA,RESTAURANT 101 TO 200 SEATS,FULL SERVICE FULL MENU,40.165278, -105.102515,40.1652733,-105.1020279
FA0000515,MEADOW MOUNTAIN CAFE,441 BUSINESS ROUTE 7 ALLENSPARK CO USA,RESTAURANT 0 TO 100 SEATS,FULL SERVICE FULL MENU,,,40.1869328,-105.4860398
FA0000973,VICS AGAIN,3305 30TH ST BOULDER CO USA,RESTAURANT 0 TO 100 SEATS,FAST FOOD LIMITED MENU,40.035316, -105.253684,40.0353245,-105.25469
FA0000458,LA PANDA II,1118 N MAIN ST LONGMONT CO USA,RESTAURANT 0 TO 100 SEATS,FULL SERVICE FULL MENU,40.178598, -105.102426,40.1784725,-105.1020189
FA0000818,MR SAKE SUSHI & GRILL,1387 E SOUTH BOULDER RD UNIT G LOUISVILLE CO USA,RESTAURANT 0 TO 100 SEATS,FULL SERVICE FULL MENU,39.986966, -105.123423,39.98737089999999,-105.1234743
FA0000080,TRADER JOES,1906 28TH ST BOULDER CO USA,GROCERY STORE 0 TO 15000 SQ FT,GROCERY FINISHED FOODS,40.021133, -105.258324,40.0202684,-105.2578411
FA0003784,TINGS PLACE,1265 S PUBLIC RD LAFAYETTE CO USA,RESTAURANT 101 TO 200 SEATS,FULL SERVICE FULL MENU,39.988151, -105.090517,39.988132,-105.0909061
FA0001055,STARBUCKS COFFEE 246,3033 ARAPAHOE RD BOULDER CO USA,LIMITED FOOD SERVICE CONVENIENCE OTHER,FAST FOOD LIMITED MENU,,,40.0148045,-105.213055
FA0005101,CHOCOLATERIE STAM,103 N PUBLIC RD UNIT B LAFAYETTE CO USA,RESTAURANT 0 TO 100 SEATS,FAST FOOD LIMITED MENU,39.998475, -105.090455,39.9983946,-105.0906777
FA0000779,SAFEWAY STORE 1656,1601 COALTON RD SUPERIOR CO USA,GROCERY STORE W DELI MORE THAN 15000 SQ FT,GROCERY FINISHED FOODS,39.928961, -105.148892,39.929661,-105.1489214
FA0002502,WALMART #5370,2514 MAIN ST LONGMONT CO USA,GROCERY STORE W DELI MORE THAN 15000 SQ FT,GROCERY FINISHED FOODS,40.20433, -105.102445,40.2051158,-105.098488
FA0002505,SUBWAY 38902 AT SUPER WALMART,2514 N MAIN ST LONGMONT CO USA,RESTAURANT 0 TO 100 SEATS,FAST FOOD LIMITED MENU,40.20433, -105.102445,40.2051158,-105.098488
FA0000751,PRESS PLAY,1005 PEARL ST BOULDER CO USA,RESTAURANT 0 TO 100 SEATS,BARS FRATERNAL ORGANIZATIONS,40.017365, -105.282549,40.0175331,-105.2824077
FA0002863,HISSHO SUSHI #312 (INSIDE SPROUTS),2525 ARAPAHOE AVE BOULDER CO USA,RESTAURANT 0 TO 100 SEATS,FULL MENU LIMITED SERVICE,40.014691, -105.262043,40.0152398,-105.2600413
FA0000599,OSKAR BLUES,303 MAIN ST LYONS CO USA,RESTAURANT 101 TO 200 SEATS,FULL SERVICE FULL MENU,40.224637, -105.268882,40.2242961,-105.2685792
FA0000396,GOOD EATS GRILL,1114 FRANCIS ST LONGMONT CO USA,RESTAURANT 0 TO 100 SEATS,FULL SERVICE FULL MENU,40.1779, -105.11653,40.1783867,-105.1158826
FA0000193,QUALITY INN,1196 W DILLON RD LOUISVILLE CO USA,RESTAURANT 0 TO 100 SEATS,FULL MENU LIMITED SERVICE,39.961995, -105.167711,39.96130170000001,-105.1678674
FA0000109,BURGER KING 414,1770 28TH ST BOULDER CO USA,RESTAURANT 0 TO 100 SEATS,FAST FOOD LIMITED MENU,40.018614, -105.258283,40.0186492,-105.257652
FA0001272,KHOW THAI CAFE,1600 BROADWAY ST BOULDER CO USA,RESTAURANT 0 TO 100 SEATS,FULL MENU LIMITED SERVICE,40.013008, -105.27826,40.0130829,-105.2780477
FA0005345,HOLY CREPE (MOBILE),1650 BROADWAY ST Boulder CO USA,MOBILE UNIT FULL FOOD SERVICE,MOBILE UNITS,40.013895, -105.278603,40.0139508,-105.2782063
FA0005301,IL PORCELLINO SALUMI @ LGMT FARM MRKT PRE-PKG,4324 W 41ST AVE Denver CO USA,MOBILE UNIT PREPACKAGED,PRE PACKAGED,39.772487, -105.043487,39.7724018,-105.0435392
FA0002492,KALITA GRILL,2426 ARAPAHOE AVE BOULDER CO USA,RESTAURANT 0 TO 100 SEATS,FULL MENU LIMITED SERVICE,40.014555, -105.262703,40.0137967,-105.2627051
FA0003585,FOLSOM THAI,1575 FOLSOM ST UNIT 101 BOULDER CO USA,RESTAURANT 0 TO 100 SEATS,FULL SERVICE FULL MENU,40.0152, -105.263141,40.0152523,-105.2634852
FA0000801,RUTHIES,1397 PEARL ST BOULDER CO USA,RESTAURANT 0 TO 100 SEATS,FAST FOOD LIMITED MENU,40.018442, -105.277393,40.0184655,-105.2775157
FA0001233,7-ELEVEN 35069B,1091 13TH ST BOULDER CO USA,GROCERY STORE W DELI 0 TO 15000 SQ FT,GROCERY FINISHED FOODS,40.007152, -105.276203,40.0071656,-105.2764191
FA0000419,KING SOOPERS 42,2255 N MAIN ST LONGMONT CO USA,GROCERY STORE W DELI MORE THAN 15000 SQ FT,GROCERY FINISHED FOODS,40.198059, -105.102433,40.1976939,-105.1030328
FA0002374,WALGREENS 9598,1041 MAIN ST LONGMONT CO USA,GROCERY STORE 0 TO 15000 SQ FT,GROCERY FINISHED FOODS,40.177384, -105.10244,40.177222,-105.103147
FA0001091,WENDYS 4035,1091 S HOVER ST LONGMONT CO USA,RESTAURANT 0 TO 100 SEATS,FAST FOOD LIMITED MENU,40.146561, -105.13084,40.1464481,-105.1309689
FA0004975,OZO COFFEE LONGMONT,1232 A S HOVER ST UNIT 400 LONGMONT CO USA,RESTAURANT 0 TO 100 SEATS,FAST FOOD LIMITED MENU,40.145147, -105.13073,40.1473207,-105.1289563
FA0001550,LA CHOZA (MOBILE),4557 N BROADWAY ST BOULDER CO USA,MOBILE UNIT FULL FOOD SERVICE,MOBILE UNITS,40.057292, -105.282125,40.0574237,-105.2821287
FA0005386,COLORADO FRIED CHICKEN COMPANY (MOBILE),909 WALNUT ST Boulder CO USA,MOBILE UNIT FULL FOOD SERVICE,MOBILE UNITS,40.016153, -105.283164,40.0163804,-105.2832568
FA0001343,THAI KITCHEN,2130 N MAIN ST UNIT 5 LONGMONT CO USA,RESTAURANT 0 TO 100 SEATS,FULL SERVICE FULL MENU,40.196791, -105.102409,40.1963435,-105.1013488
FA0000245,MARCOS HOT DOG,1647 KIMBARK ST LONGMONT CO USA,RESTAURANT 0 TO 100 SEATS,FULL MENU LIMITED SERVICE,40.188339, -105.100479,40.1883015,-105.1007946
FA0000466,ROYAL WOK,1950 N MAIN ST LONGMONT CO USA,RESTAURANT 101 TO 200 SEATS,FULL SERVICE FULL MENU,40.193635, -105.102349,40.1934837,-105.1016396
FA0001347,KATHMANDU RESTAURANT,110 N JEFFERSON ST NEDERLAND CO USA,RESTAURANT 0 TO 100 SEATS,FULL SERVICE FULL MENU,39.962374, -105.511275,39.9620757,-105.5115825
FA0005329,A TAKEAR (MOBILE),2887 30TH ST Boulder CO USA,MOBILE UNIT FULL FOOD SERVICE,MOBILE UNITS,40.028569, -105.253674,40.0284999,-105.254269
FA0004835,JAX COFFEE GEAR (MOBILE INSIDE JAX LAFAYETTE OUTDOOR),900 S HWY 287 LAFAYETTE CO USA,MOBILE UNIT FULL FOOD SERVICE,MOBILE UNITS,39.989476, -105.098434,39.9898164,-105.0971178
FA0002925,SAVORY SPICE SHOP,2041 BROADWAY ST BOULDER CO USA,LIMITED FOOD SERVICE CONVENIENCE OTHER,FAST FOOD LIMITED MENU,40.018567, -105.280218,40.0185367,-105.2805027
FA0000258,BREWING MARKET,1918 13TH ST BOULDER CO USA,RESTAURANT 0 TO 100 SEATS,FAST FOOD LIMITED MENU,40.017529, -105.278463,40.01758030000001,-105.2782401
FA0002416,TIERRA Y FUEGO TAQUERIA,4550 N BROADWAY ST BOULDER CO USA,RESTAURANT 0 TO 100 SEATS,FULL SERVICE FULL MENU,40.057555, -105.282125,40.0571367,-105.2818111
FA0004977,STARBUCKS COFFEE#5306,844 KEN PRATT BLVD LONGMONT CO USA,LIMITED FOOD SERVICE CONVENIENCE OTHER,FULL SERVICE FULL MENU,40.152483, -105.106757,40.15287989999999,-105.1067326
FA0003614,ROBIN CHOCOLATES,600 S AIRPORT RD UNIT B-D LONGMONT CO USA,RESTAURANT 0 TO 100 SEATS,FAST FOOD LIMITED MENU,40.151853, -105.154534,40.1512854,-105.1531705
FA0000605,QUES ESPRESSO,600 S AIRPORT RD E BLDG A D LONGMONT CO USA,RESTAURANT 0 TO 100 SEATS,FAST FOOD LIMITED MENU,40.151853, -105.154534,40.1512854,-105.1531705
FA0002882,ZODIAC SUBS,2359 ARAPAHOE AVE UNIT A BOULDER CO USA,RESTAURANT 0 TO 100 SEATS,FAST FOOD LIMITED MENU,40.014659, -105.263247,40.0148771,-105.2633881
FA0000863,TASTY ASIA,736 MAIN ST LONGMONT CO USA,RESTAURANT 0 TO 100 SEATS,FULL SERVICE FULL MENU,40.172019, -105.102499,40.1720236,-105.1021192
FA0001336,WING SHACK,1133 FRANCIS ST LONGMONT CO USA,RESTAURANT 0 TO 100 SEATS,FAST FOOD LIMITED MENU,40.178964, -105.116547,40.17898599999999,-105.117056
FA0002873,TACOS EL REY #2,3336 ARAPAHOE RD UNIT D ERIE CO USA,RESTAURANT 0 TO 100 SEATS,FULL MENU LIMITED SERVICE,40.015248, -105.101906,40.01589,-105.1023705
FA0000925,TAQUERIA ESPERANZA,1280 CENTAUR VILLAGE DR UNIT 4 LAFAYETTE CO USA,RESTAURANT 0 TO 100 SEATS,FULL MENU LIMITED SERVICE,39.987478, -105.107815,39.9874949,-105.1072122
FA0002171,POLLERIA LA FOGATA,1690 N MAIN ST LONGMONT CO USA,RESTAURANT 0 TO 100 SEATS,FAST FOOD LIMITED MENU,40.191739, -105.102344,40.1883354,-105.1016196
FA0003050,MOES ORIGINAL BBQ,675 30TH ST BOULDER CO USA,RESTAURANT 0 TO 100 SEATS,FULL MENU LIMITED SERVICE,39.999553, -105.253037,39.9991487,-105.2540857
FA0002939,FOOLISH CRAIGS CAFE,1925 COLORADO AVE BOULDER CO USA,LIMITED FOOD SERVICE CONVENIENCE OTHER,FULL SERVICE FULL MENU,40.00825, -105.268009,40.0090229,-105.2689923
FA0003257,BARNES AND NOBLE BOOKSELLERS,2999 PEARL ST BOULDER CO USA,RESTAURANT 0 TO 100 SEATS,FAST FOOD LIMITED MENU,40.023172, -105.254342,40.0235207,-105.2543069
FA0000064,BREWING MARKET,2770 DAGNY WY UNIT A101 LAFAYETTE CO USA,RESTAURANT 0 TO 100 SEATS,FAST FOOD LIMITED MENU,40.012753, -105.131857,40.0123075,-105.1322456
FA0000535,UDON KAISHA,191 W SOUTH BOULDER RD LAFAYETTE CO USA,RESTAURANT 0 TO 100 SEATS,FULL SERVICE FULL MENU,39.986986, -105.09186,39.9885203,-105.0913203
FA0002759,LOCO HERMANOS,318 S MCCASLIN BLVD LOUISVILLE CO USA,RESTAURANT 0 TO 100 SEATS,FAST FOOD LIMITED MENU,39.965831, -105.163314,39.965736,-105.1619952
FA0000486,ROOST THE,526 MAIN ST LONGMONT CO USA,RESTAURANT MORE THAN 200 SEATS,FULL SERVICE FULL MENU,40.168403, -105.102507,40.1683811,-105.1023012
FA0000113,BURGER KING 7367,1325 E SOUTH BOULDER RD LOUISVILLE CO USA,RESTAURANT 0 TO 100 SEATS,FAST FOOD LIMITED MENU,39.986947, -105.127311,39.987409,-105.1273117
FA0000642,MCDONALDS 0109,1800 28TH ST BOULDER CO USA,RESTAURANT 101 TO 200 SEATS,FAST FOOD LIMITED MENU,40.01885, -105.258288,40.0193158,-105.2579323
FA0001351,INDIAS GROCERY,2877 28TH ST BOULDER CO USA,GROCERY STORE 0 TO 15000 SQ FT,GROCERY FINISHED FOODS,40.028369, -105.2584,40.0284622,-105.2592827
FA0001186,MCDONALDS,939 DILLON RD LOUISVILLE CO USA,RESTAURANT 0 TO 100 SEATS,FAST FOOD LIMITED MENU,39.961251, -105.162328,39.9611975,-105.1627658
FA0000355,RAZA FRESA MEXICAN KITCHEN,7960 NIWOT RD UNIT D11 NIWOT CO USA,RESTAURANT 0 TO 100 SEATS,FULL SERVICE FULL MENU,40.101612, -105.168147,40.10004929999999,-105.1672438
FA0000500,CORRECTION MANAGEMENT INC,236 MAIN ST LONGMONT CO USA,NO FEE LICENSE K12 SCHOOLS NON PROFIT,FULL SERVICE FULL MENU,40.163293, -105.102518,40.163251,-105.1020964
FA0000164,CHEZ THUY CUISINE,2655 28TH ST BOULDER CO USA,RESTAURANT 101 TO 200 SEATS,FULL SERVICE FULL MENU,40.026992, -105.258402,40.0270275,-105.2588407
FA0000803,SUBWAY 11652,2480 BASELINE RD BOULDER CO USA,RESTAURANT 0 TO 100 SEATS,FAST FOOD LIMITED MENU,40.000175, -105.262306,39.9985426,-105.2619911
FA0000721,GOOD BIRD KITCHEN,1258 S HOVER ST LONGMONT CO USA,RESTAURANT 0 TO 100 SEATS,FAST FOOD LIMITED MENU,40.144552, -105.130729,40.144527,-105.1301963
FA0005038,AMANTE WALNUT II,1023 WALNUT ST BOULDER CO USA,LIMITED FOOD SERVICE CONVENIENCE OTHER,FAST FOOD LIMITED MENU,40.016464, -105.28162,40.0168576,-105.2817478
FA0003806,PANDA EXPRESS #2120,2524 MAIN ST LONGMONT CO USA,RESTAURANT 0 TO 100 SEATS,FAST FOOD LIMITED MENU,40.204594, -105.102445,40.2047669,-105.1018452
FA0000628,PASTA JAYS,1001 PEARL ST BOULDER CO USA,RESTAURANT 0 TO 100 SEATS,FULL SERVICE FULL MENU,40.017417, -105.282297,40.0175029,-105.282453
FA0000279,IHOP 2126,2040 KEN PRATT BLVD LONGMONT CO USA,RESTAURANT 101 TO 200 SEATS,FULL SERVICE FULL MENU,40.143634, -105.127992,40.1438747,-105.1284081
FA0000017,UNDER THE SUN EATERY & TAPHOUSE,627 S BROADWAY ST UNIT A BOULDER CO USA,RESTAURANT 0 TO 100 SEATS,FULL SERVICE FULL MENU,39.984687, -105.249231,39.7051972,-104.987561
FA0003722,ZIGGIS COFFEE,1221 S MAIN ST LONGMONT CO USA,LIMITED FOOD SERVICE CONVENIENCE OTHER,FAST FOOD LIMITED MENU,40.145423, -105.102499,40.1454083,-105.1028615
FA0005050,(CU) VILLAGE CENTER THE GRANGE (GRILLE),510 30TH ST BOULDER CO USA,RESTAURANT 0 TO 100 SEATS,FAST FOOD LIMITED MENU,39.997238, -105.252634,39.9979788,-105.2524055
FA0002133,EATS AND SWEETS,401 S PUBLIC RD UNIT C LAFAYETTE CO USA,RESTAURANT 0 TO 100 SEATS,FAST FOOD LIMITED MENU,39.994999, -105.09046,39.9949449,-105.0906777
FA0004740,SISTER CARMEN COMMUNITY CENTER,655 ASPEN RIDGE DR LAFAYETTE CO USA,NO FEE LICENSE K12 SCHOOLS NON PROFIT,FOOD BANK,40.003155, -105.106388,40.0034016,-105.1069839
FA0000445,EFRAINS,101 E CLEVELAND ST LAFAYETTE CO USA,RESTAURANT 101 TO 200 SEATS,FULL SERVICE FULL MENU,39.997226, -105.090178,39.9973756,-105.0901515
FA0005072,STARBUCKS COFFEE #29706,1137 DIAMOND CIR UNIT 100 LAFAYETTE CO USA,LIMITED FOOD SERVICE CONVENIENCE OTHER,FAST FOOD LIMITED MENU,40.003842, -105.103481,40.004479,-105.1035025
FA0002868,MORNING GLORY CAFE,1377 FOREST PARK CIR UNIT 101 LAFAYETTE CO USA,RESTAURANT 0 TO 100 SEATS,FULL MENU LIMITED SERVICE,40.014204, -105.127992,40.013977,-105.129512
FA0000657,JAMBA JUICE,3053 ARAPAHOE AVE BOULDER CO USA,RESTAURANT 0 TO 100 SEATS,FAST FOOD LIMITED MENU,40.014712, -105.252444,40.0149787,-105.2524629
FA0003606,BLACKBELLY MARKET,1606 CONESTOGA ST UNIT 3 BOULDER CO USA,RESTAURANT 101 TO 200 SEATS,FULL SERVICE FULL MENU,40.015111, -105.22815,40.0150122,-105.2272276
FA0001614,SHERPAS,825 WALNUT ST BOULDER CO USA,RESTAURANT 101 TO 200 SEATS,FULL SERVICE FULL MENU,40.01592, -105.28431,40.016199,-105.2844684
FA0001292,CHIPOTLE MEXICAN GRILL #114,375 S MCCASLIN BLVD D LOUISVILLE CO USA,RESTAURANT 101 TO 200 SEATS,FAST FOOD LIMITED MENU,39.965182, -105.163529,39.9662154,-105.1639539
FA0004833,WALGREENS #16022,1111 BROADWAY ST BOULDER CO USA,GROCERY STORE  MORE THAN 15000 SQ FT,GROCERY FINISHED FOODS,40.007684, -105.275106,40.0075014,-105.275297
FA0004539,AIMES LOVE,331 MAIN ST LONGMONT CO USA,RESTAURANT 0 TO 100 SEATS,FAST FOOD LIMITED MENU,40.1646, -105.102515,40.1646031,-105.102911
FA0002758,RAS KASSAS ETHIOPIAN,802 S PUBLIC RD UNIT C LAFAYETTE CO USA,RESTAURANT 0 TO 100 SEATS,FULL SERVICE FULL MENU,39.990902, -105.090481,39.9910066,-105.090221
FA0003599,WONDER PRESS,946 PEARL ST BOULDER CO USA,RESTAURANT 0 TO 100 SEATS,FAST FOOD LIMITED MENU,40.017337, -105.282676,40.0169875,-105.282685
FA0000931,ROSALEES PIZZERIA,461 MAIN ST LONGMONT CO USA,RESTAURANT 0 TO 100 SEATS,FAST FOOD LIMITED MENU,40.166936, -105.102508,40.167029,-105.1028558
FA0005408,SIMPLE GREEK #46 THE,520 W SOUTH BOULDER RD Lafayette CO USA,RESTAURANT 0 TO 100 SEATS,FAST FOOD LIMITED MENU,39.986896, -105.096751,39.9865489,-105.0967752
FA0002178,TIBET KITCHEN,2359 ARAPAHOE AVE BOULDER CO USA,RESTAURANT 0 TO 100 SEATS,FULL MENU LIMITED SERVICE,40.014659, -105.263247,40.0148771,-105.2633881
FA0000036,ASIAN SEAFOOD MARKET,2833 28TH ST BOULDER CO USA,GROCERY STORE 0 TO 15000 SQ FT,GROCERY FINISHED FOODS,40.027892, -105.258395,40.0279738,-105.2588537
FA0002287,ZIGGIS COFFEE BAR,400 N MAIN ST LONGMONT CO USA,LIMITED FOOD SERVICE CONVENIENCE OTHER,FAST FOOD LIMITED MENU,40.165902, -105.102513,40.165896,-105.1022603
FA0000185,SUBWAY,1335 SOUTH BOULDER RD LOUISVILLE CO USA,RESTAURANT 0 TO 100 SEATS,FAST FOOD LIMITED MENU,,,39.9873088,-105.1251189
FA0002087,OBSERV LOCATION 2 (MOBILE),4333 CHEROKEE ST DENVER CO USA,MOBILE UNIT FULL FOOD SERVICE,MOBILE UNITS,39.775946, -104.991322,39.7759045,-104.991597
FA0001623,OREGANOS PIZZA BISTRO,2690 BASELINE RD BOULDER CO USA,RESTAURANT 101 TO 200 SEATS,FULL SERVICE FULL MENU,40.000305, -105.260502,39.9998565,-105.2604899
FA0002021,LEVY FOLSOM FIELD HOT PREP KITCHEN 6TH FLOOR (CU),2400 COLORADO AVE RM 680 BOULDER CO USA,RESTAURANT 0 TO 100 SEATS,FULL SERVICE FULL MENU,40.008231, -105.264147,40.0091912,-105.2669142
FA0000326,GLACIER HOMEMADE ICE CREAM,3133 28TH ST BOULDER CO USA,RESTAURANT 0 TO 100 SEATS,FAST FOOD LIMITED MENU,40.031559, -105.258422,40.0315597,-105.2589744
FA0000390,HAMPTON INN,850 S MAIN ST LONGMONT CO USA,RESTAURANT 0 TO 100 SEATS,FAST FOOD LIMITED MENU,40.149201, -105.102507,40.1492455,-105.101868
FA0000278,FREDDYS FROZEN CUSTARD AND STEAKBURGERS,2250 N MAIN ST LONGMONT CO USA,RESTAURANT 101 TO 200 SEATS,FAST FOOD LIMITED MENU,40.199147, -105.102471,40.1992957,-105.1020051
FA0001161,SUBWAY,1801 HOVER RD LONGMONT CO USA,RESTAURANT 0 TO 100 SEATS,FAST FOOD LIMITED MENU,40.190415, -105.130926,40.1899699,-105.1314004
FA0000821,ZIGGIS COFFEE,1139 FRANCIS ST LONGMONT CO USA,LIMITED FOOD SERVICE CONVENIENCE OTHER,FAST FOOD LIMITED MENU,40.178641, -105.116542,40.1791422,-105.1170561
FA0002019,LEVY FOLSOM FIELD COLD KITCHEN 6TH FLOOR (CU),2400 COLORADO AVE RM 604 BOULDER CO USA,RESTAURANT 0 TO 100 SEATS,FULL SERVICE FULL MENU,40.008231, -105.264147,40.0091912,-105.2669142
FA0000493,BUDDHA CAFE,2719 IRIS AVE BOULDER CO USA,RESTAURANT 0 TO 100 SEATS,FULL SERVICE FULL MENU,40.036446, -105.260184,40.0371291,-105.2601149
FA0002839,ZIGGIS COFFEE,1729 HOVER ST LONGMONT CO USA,LIMITED FOOD SERVICE CONVENIENCE OTHER,FAST FOOD LIMITED MENU,40.189298, -105.130921,40.1891069,-105.1312063
FA0002701,BUSEY BREWS,70 E FIRST ST NEDERLAND CO USA,RESTAURANT 101 TO 200 SEATS,FULL SERVICE FULL MENU,39.961883, -105.509365,39.9616936,-105.5093619
FA0000649,INDIAN PEAKS GOLF COURSE AT LAFAYET,2300 INDIAN PEAKS TR LAFAYETTE CO USA,RESTAURANT 101 TO 200 SEATS,FULL SERVICE FULL MENU,40.00227, -105.123205,40.0067463,-105.1244908
FA0000886,WAPOS,4929 N BROADWAY ST UNIT A BOULDER CO USA,RESTAURANT 101 TO 200 SEATS,FULL SERVICE FULL MENU,40.064415, -105.282098,40.0642138,-105.2831881
FA0004638,LONGS PEAK PUB & TAPHOUSE,600 LONGS PEAK AVE LONGMONT CO USA,RESTAURANT 101 TO 200 SEATS,FULL SERVICE FULL MENU,40.170667, -105.103394,40.171017,-105.1027816
FA0004897,TACOS DEL NORTE (SPECIAL EVENT),3975 28TH ST BOULDER CO USA,SPECIAL EVENT,SPECIAL EVENT,40.047001, -105.258577,40.046821,-105.2615676
FA0003769,BJS RESTAURANT,1690 28TH ST BOULDER CO USA,RESTAURANT MORE THAN 200 SEATS,FULL SERVICE FULL MENU,40.017869, -105.258281,40.0177299,-105.2577891
FA0004519,SWEET COW,2628 BROADWAY ST BOULDER CO USA,RESTAURANT 0 TO 100 SEATS,FAST FOOD LIMITED MENU,40.024766, -105.282044,40.0247479,-105.2811651
FA0000399,HIDDEN CAFE,829 MAIN ST LONGMONT CO USA,RESTAURANT 0 TO 100 SEATS,FULL MENU LIMITED SERVICE,40.173391, -105.102492,40.1734733,-105.1028272
FA0000738,3 MARGARITAS,2350 N MAIN ST LONGMONT CO USA,RESTAURANT MORE THAN 200 SEATS,FULL SERVICE FULL MENU,40.201287, -105.102384,40.2013638,-105.101731
FA0003737,BRAMBLE AND HARE,1970 13th ST BOULDER CO USA,RESTAURANT 0 TO 100 SEATS,FULL SERVICE FULL MENU,40.017919, -105.2786,40.0179773,-105.2784201
FA0001288,FOOLISH CRAIGS CAFE,1611 PEARL ST BOULDER CO USA,RESTAURANT 0 TO 100 SEATS,FULL SERVICE FULL MENU,40.019048, -105.274408,40.01923,-105.2744535
FA0000133,CAPITAL ONE CAFE,1247 PEARL ST BOULDER CO USA,LIMITED FOOD SERVICE CONVENIENCE OTHER,FAST FOOD LIMITED MENU,40.018132, -105.278889,40.0182807,-105.2789394
FA0004654,JACKLEGGERS MERCANTILE,62 UTICA ST WARD CO USA,RESTAURANT 0 TO 100 SEATS,FAST FOOD LIMITED MENU,40.072921, -105.506993,40.0728334,-105.5068895
FA0000033,IHOP 1836,1675 28TH ST BOULDER CO USA,RESTAURANT 101 TO 200 SEATS,FULL SERVICE FULL MENU,40.016344, -105.258459,40.016358,-105.2589347
FA0000135,BOULDER CORK THE,3295 30TH ST BOULDER CO USA,RESTAURANT 101 TO 200 SEATS,FULL SERVICE FULL MENU,40.034605, -105.253691,40.0344665,-105.2540941
FA0003592,AOI,3303 30TH ST BOULDER CO USA,RESTAURANT 0 TO 100 SEATS,FULL SERVICE FULL MENU,40.035468, -105.253681,40.0352285,-105.2546915
FA0002629,PEKOE SIP TEA HOUSE 4 @ ATLAS BLDG,1125 18TH ST BOULDER CO USA,RESTAURANT 0 TO 100 SEATS,FAST FOOD LIMITED MENU,,,40.0074416,-105.2699287
FA0000844,TAQUERIA MADERO,830 LASHLEY ST UNIT A LONGMONT CO USA,RESTAURANT 0 TO 100 SEATS,FULL SERVICE FULL MENU,40.173475, -105.088302,40.1732489,-105.0878986
FA0003825,ETAIS AT CU,3415 COLORADO AVE BOULDER CO USA,RESTAURANT 0 TO 100 SEATS,FAST FOOD LIMITED MENU,40.007442, -105.251046,40.008301,-105.2490525
FA0002284,SMASHBURGER,2755 DAGNY WY UNIT 103 LAFAYETTE CO USA,RESTAURANT 0 TO 100 SEATS,FULL MENU LIMITED SERVICE,40.012756, -105.131586,40.0131102,-105.1315146
FA0005391,SCROOGE MAKI 1 (MOBILE),1107 13TH ST Boulder CO USA,MOBILE UNIT FULL FOOD SERVICE,MOBILE UNITS,40.00758, -105.276228,40.0075099,-105.2764136
FA0000106,BEN AND JERRYS,1203 PEARL ST BOULDER CO USA,RESTAURANT 0 TO 100 SEATS,FAST FOOD LIMITED MENU,40.017918, -105.279967,40.0179937,-105.2798279
FA0000843,TACO BELL #33848,2010 S KEN PRATT BLVD LONGMONT CO USA,RESTAURANT 0 TO 100 SEATS,FAST FOOD LIMITED MENU,40.144579, -105.126289,40.1448263,-105.126695
FA0003324,LA BARATA,480 17TH AVE LONGMONT CO USA,GROCERY STORE 0 TO 15000 SQ FT,GROCERY FINISHED FOODS,40.188567, -105.100332,40.188978,-105.1004638
FA0004625,NAROPA CAFE/COMMUNITY TABLE KITCHEN,6287 ARAPAHOE AVE BOULDER CO USA,RESTAURANT 0 TO 100 SEATS,FULL MENU LIMITED SERVICE,,,40.0159674,-105.2073664
FA0001088,740 FRONT,740 FRONT ST LOUISVILLE CO USA,RESTAURANT 101 TO 200 SEATS,FULL SERVICE FULL MENU,39.977635, -105.130788,39.9776522,-105.1305096
FA0002755,BRIDGE HOUSE,5345 ARAPAHOE RD UNIT 5 BOULDER CO USA,NO FEE LICENSE K12 SCHOOLS NON PROFIT,RESIDENTIAL FACILITIES,,,40.0151638,-105.2288482
FA0000230,TRAIN CARS COFFEE & YOGURT CO THE,101 S HWY 119 S NEDERLAND CO USA,RESTAURANT 0 TO 100 SEATS,FAST FOOD LIMITED MENU,,,39.9603842,-105.5101288
FA0001253,BAWARCHI,390 S MCCASLIN BLVD LOUISVILLE CO USA,RESTAURANT 0 TO 100 SEATS,FAST FOOD LIMITED MENU,39.964598, -105.163303,39.9644741,-105.1623089
FA0002128,LAS PALMERAS EXPRESS,1640 PACE ST UNIT 400 LONGMONT CO USA,RESTAURANT 0 TO 100 SEATS,FAST FOOD LIMITED MENU,40.187852, -105.074116,40.187594,-105.0713434
FA0004511,OZO COFFEE CAFE,1898 S FLATIRON CT UNIT 110 BOULDER CO USA,RESTAURANT 0 TO 100 SEATS,FAST FOOD LIMITED MENU,40.019777, -105.21852,40.0204271,-105.2182589
FA0000547,GAIA MASALA AND BURGER,1116 13TH ST BOULDER CO USA,RESTAURANT 0 TO 100 SEATS,FAST FOOD LIMITED MENU,40.007635, -105.276227,40.0076462,-105.2758206
FA0000951,THE POST BREWING CO,105 W EMMA ST LAFAYETTE CO USA,RESTAURANT MORE THAN 200 SEATS,FULL SERVICE FULL MENU,39.994274, -105.091262,39.9945463,-105.0913171
FA0000474,SAND WEDGE CAFE & BAR,5706 ARAPAHOE RD BOULDER CO USA,RESTAURANT 0 TO 100 SEATS,FAST FOOD LIMITED MENU,40.014574, -105.220496,40.0138709,-105.2111301
FA0003703,SALTO COFFEE WORKS,112 E 2ND ST NEDERLAND CO USA,RESTAURANT 0 TO 100 SEATS,FAST FOOD LIMITED MENU,39.962556, -105.508243,39.9624353,-105.5083775
FA0005283,SWEET COW MOBILE SOBO,669 S BROADWAY Boulder CO USA,MOBILE UNIT FULL FOOD SERVICE,MOBILE UNITS,39.983667, -105.248333,39.9831228,-105.2495361
FA0005421,SWEET COW MOBILE TEX,637 FRONT ST UNIT B Louisville CO USA,MOBILE UNIT FULL FOOD SERVICE,MOBILE UNITS,39.976525, -105.130783,39.9765788,-105.1311641
FA0000879,TEN PIN ALLEY,550 W SOUTH BOULDER RD LAFAYETTE CO USA,RESTAURANT 0 TO 100 SEATS,BARS FRATERNAL ORGANIZATIONS,39.986899, -105.09663,39.9855702,-105.0973629
FA0004652,FIREHOUSE SUBS,534 W SOUTH BOULDER RD UNIT D LAFAYETTE CO USA,RESTAURANT 0 TO 100 SEATS,FAST FOOD LIMITED MENU,39.986901, -105.096467,39.986639,-105.0972776
FA0004821,BLACKJACK PIZZA,1108 FRANCIS ST Longmont CO USA,RESTAURANT 0 TO 100 SEATS,FAST FOOD LIMITED MENU,40.177789, -105.116528,40.1781292,-105.11607
FA0003485,OZO COFFEE COMPANY,1015 PEARL ST UNIT L BOULDER CO USA,RESTAURANT 0 TO 100 SEATS,FAST FOOD LIMITED MENU,40.01746, -105.28209,40.017564,-105.282169
FA0001077,BOHEMIAN BIERGARTEN,2017 13TH ST BOULDER CO USA,RESTAURANT 101 TO 200 SEATS,FULL SERVICE FULL MENU,40.018799, -105.278886,40.0161719,-105.2778439
FA0000945,PEAK GOLF,1200 CORNELL DR LONGMONT CO USA,RESTAURANT 0 TO 100 SEATS,FAST FOOD LIMITED MENU,40.180008, -105.145714,40.1792325,-105.1459488
FA0001074,KITCHEN THE,1039 PEARL ST BOULDER CO USA,RESTAURANT 0 TO 100 SEATS,FULL SERVICE FULL MENU,40.017559, -105.281616,40.0178146,-105.2817688
FA0002689,DELI AT 8236 THE,34 E 1ST ST NEDERLAND CO USA,RESTAURANT 0 TO 100 SEATS,FAST FOOD LIMITED MENU,39.961884, -105.509481,39.9617855,-105.5096031
FA0001037,BF MOUNTAIN MARKET,60 LAKEVIEW DR NEDERLAND CO USA,GROCERY STORE W DELI MORE THAN 15000 SQ FT,GROCERY FINISHED FOODS,39.960647, -105.509186,39.9602118,-105.5088811
FA0000360,DELI ZONE VALMONT,2900 VALMONT RD UNIT D1 BOULDER CO USA,RESTAURANT 0 TO 100 SEATS,FAST FOOD LIMITED MENU,40.029109, -105.255597,40.0286851,-105.2555386
FA0002676,HOLIDAY INN EXPRESS QWMCO,1355 DRY CREEK DR LONGMONT CO USA,RESTAURANT 0 TO 100 SEATS,FAST FOOD LIMITED MENU,40.142085, -105.133748,40.1419518,-105.1346212
FA0000672,BLACKJACK PIZZA & SALADS,1075 E SOUTH BOULDER RD UNIT 115 LOUISVILLE CO USA,RESTAURANT 0 TO 100 SEATS,FAST FOOD LIMITED MENU,39.986961, -105.129788,39.9873792,-105.1298839
FA0002719,STARBUCKS COFFEE 13426,3336 ARAPAHOE AVE ERIE CO USA,LIMITED FOOD SERVICE CONVENIENCE OTHER,FAST FOOD LIMITED MENU,40.015248, -105.101906,40.01589,-105.1023705
FA0005319,LA GARNACHA (MOBILE),1515 MAIN ST Longmont CO USA,MOBILE UNIT FULL FOOD SERVICE,MOBILE UNITS,40.185769, -105.102333,40.18535079999999,-105.103147
FA0003015,MACS PLACE @GE OIL & GAS,1800 NELSON RD LONGMONT CO USA,RESTAURANT 0 TO 100 SEATS,FULL MENU LIMITED SERVICE,40.15237, -105.122397,40.1536257,-105.1224237
FA0001002,MEDITERRANEAN MARKET AND DELI,2690 28TH ST UNIT D BOULDER CO USA,GROCERY STORE W DELI MORE THAN 15000 SQ FT,GROCERY FINISHED FOODS,40.027017, -105.258403,40.02704560000001,-105.2572453
FA0004789,300 SUNS BREWING,335 1ST AVE UNIT C LONGMONT CO USA,RESTAURANT 0 TO 100 SEATS,FAST FOOD LIMITED MENU,40.160222, -105.10106,40.1599201,-105.1012742
FA0001126,A THAI STICKY RICE,510 W 3RD AVE LONGMONT CO USA,RESTAURANT 0 TO 100 SEATS,FAST FOOD LIMITED MENU,40.163935, -105.102126,40.164132,-105.1019279
FA0003350,TNT ROASTED CORN (MOBILE),2255 N MAIN ST Longmont CO USA,MOBILE UNIT FULL FOOD SERVICE,MOBILE UNITS,40.198059, -105.102433,40.1976939,-105.1030328
FA0001624,SNARFS PEARL,2660 PEARL ST BOULDER CO USA,RESTAURANT 0 TO 100 SEATS,FAST FOOD LIMITED MENU,40.021844, -105.260267,40.0218293,-105.259785
FA0005088,AFC SUSHI @ SAFEWAY #2911,2798 ARAPAHOE AVE BOULDER CO USA,RESTAURANT 0 TO 100 SEATS,FULL MENU LIMITED SERVICE,40.014561, -105.259015,40.0133197,-105.2596624
FA0005085,NATURAL GROCERS,2685 PEARL ST BOULDER CO USA,GROCERY STORE  MORE THAN 15000 SQ FT,GROCERY FINISHED FOODS,40.02205, -105.260032,40.02231159999999,-105.260122
FA0000031,WENDYS 11318,2420 BASELINE RD BOULDER CO USA,RESTAURANT 0 TO 100 SEATS,FAST FOOD LIMITED MENU,40.000134, -105.262774,39.9994306,-105.2626773
FA0000579,NOODLES AND COMPANY #102,1245 ALPINE AVE BOULDER CO USA,RESTAURANT 0 TO 100 SEATS,FAST FOOD LIMITED MENU,40.025521, -105.281374,40.0260409,-105.2813368
FA0000688,RALLY SPORT HEALTH AND FITNESS,2727 29TH ST BOULDER CO USA,RESTAURANT 0 TO 100 SEATS,FULL MENU LIMITED SERVICE,40.027778, -105.25603,40.02803189999999,-105.2568783
FA0003785,BLUFF STREET BAR AND BILLIARDS,2690 28TH ST UNIT E BOULDER CO USA,RESTAURANT 0 TO 100 SEATS,FULL MENU LIMITED SERVICE,40.027017, -105.258403,40.02704560000001,-105.2572453
FA0001204,SCRATCH KITCHENS,2299 PEARL ST UNIT 300 BOULDER CO USA,RESTAURANT 0 TO 100 SEATS,FULL MENU LIMITED SERVICE,40.020806, -105.265759,40.0211438,-105.2659919
FA0000247,SEVENTEEN THIRTY-NINE,1739 PEARL ST BOULDER CO USA,RESTAURANT 0 TO 100 SEATS,FULL SERVICE FULL MENU,40.01942, -105.272544,40.0195963,-105.2725249
FA0000127,BPOE LODGE 566,3975 28TH ST Boulder CO USA,RESTAURANT 0 TO 100 SEATS,BARS FRATERNAL ORGANIZATIONS,40.047001, -105.258577,40.046821,-105.2615676
FA0002745,CAVA,1695 29TH ST UNIT 1248 BOULDER CO USA,RESTAURANT 0 TO 100 SEATS,FULL MENU LIMITED SERVICE,40.019704, -105.256277,40.0171082,-105.2571899
FA0004706,SEEDS LIBRARY CAFE,1001 ARAPAHOE AVE BOULDER CO USA,RESTAURANT 0 TO 100 SEATS,FAST FOOD LIMITED MENU,40.013523, -105.281588,40.0138604,-105.2815129
FA0001003,JIMMY JOHNS #669,3310 ARAPAHOE AVE BOULDER CO USA,RESTAURANT 0 TO 100 SEATS,FAST FOOD LIMITED MENU,40.01457, -105.249718,40.01428749999999,-105.2497208
FA0001242,OAK AT FOURTEENTH,1400 PEARL ST BOULDER CO USA,RESTAURANT 0 TO 100 SEATS,FULL SERVICE FULL MENU,40.018492, -105.277141,40.0181492,-105.2770887
FA0003536,DAIKON,1805 29TH ST UNIT 1138 BOULDER CO USA,RESTAURANT 0 TO 100 SEATS,FAST FOOD LIMITED MENU,40.019394, -105.256275,40.018677,-105.2566379
FA0001286,WONDERVU CAFE,33492 HWY 72 GOLDEN CO USA,RESTAURANT 101 TO 200 SEATS,FULL SERVICE FULL MENU,39.924553, -105.396366,39.92436620000001,-105.3964209
FA0001000,HARD DRIVE CAFE AT SEAGATE,389 DISC DR LONGMONT CO USA,RESTAURANT 0 TO 100 SEATS,FULL SERVICE FULL MENU,40.154614, -105.171119,40.1544358,-105.1737783
FA0002891,BASKIN ROBBINS,1844 HOVER ST UNIT A LONGMONT CO USA,LIMITED FOOD SERVICE CONVENIENCE OTHER,FAST FOOD LIMITED MENU,40.191788, -105.130933,40.1917857,-105.1302355
FA0001183,PJS DINER,1619 COALTON RD SUPERIOR CO USA,RESTAURANT 0 TO 100 SEATS,FULL SERVICE FULL MENU,39.928963, -105.148717,39.929025,-105.1493478
FA0001447,PAPA JOHNS PIZZA,1610 PACE ST UNIT 500 LONGMONT CO USA,RESTAURANT 0 TO 100 SEATS,FAST FOOD LIMITED MENU,40.18693, -105.074127,40.1868402,-105.0729085
FA0000473,BOCO RESTAURANT THE,4800 BASELINE RD UNIT A 109 BOULDER CO USA,RESTAURANT 0 TO 100 SEATS,FULL SERVICE FULL MENU,40.000017, -105.234005,39.9980269,-105.2328968
FA0002343,SUSHI LEO,2315 CLOVER BASIN DR LONGMONT CO USA,RESTAURANT 0 TO 100 SEATS,FULL SERVICE FULL MENU,40.1441, -105.132074,40.1437304,-105.1322064
FA0005073,KU CHA TEA,1211 PEARL ST BOULDER CO USA,LIMITED FOOD SERVICE CONVENIENCE OTHER,FAST FOOD LIMITED MENU,40.017939, -105.279861,40.0180634,-105.2798224
FA0005084,RAPHA RACING,1815 PEARL ST BOULDER CO USA,LIMITED FOOD SERVICE CONVENIENCE OTHER,FULL MENU LIMITED SERVICE,40.019613, -105.271606,40.0199041,-105.2716584
FA0002609,PIZZA BAR 66,430 MAIN ST LYONS CO USA,RESTAURANT 0 TO 100 SEATS,FULL MENU LIMITED SERVICE,40.224678, -105.270851,40.2249169,-105.2706367
FA0000421,SKA STREET BREWSTILLERY,1600 38TH ST UNIT 100 BOULDER CO USA,RESTAURANT MORE THAN 200 SEATS,FULL SERVICE FULL MENU,40.01545, -105.246058,40.0149857,-105.2455479
FA0000075,TRES GRINGOS CANTINA,20 LAKEVIEW DR NEDERLAND CO USA,RESTAURANT 0 TO 100 SEATS,FULL SERVICE FULL MENU,39.960644, -105.509223,39.9598234,-105.5094306
FA0000881,DUTCH BROS COFFEE,933 MAIN ST LONGMONT CO USA,RESTAURANT 0 TO 100 SEATS,FAST FOOD LIMITED MENU,40.175277, -105.102459,40.1752999,-105.1027587
FA0000347,THRIVE,1509 ARAPAHOE AVE BOULDER CO USA,RESTAURANT 0 TO 100 SEATS,FULL MENU LIMITED SERVICE,40.014581, -105.274262,40.0148997,-105.2743612
FA0004941,PICAS MEXICAN TAQUERIA LOUISVILLE,901 FRONT ST UNIT 120 LOUISVILLE CO USA,RESTAURANT 0 TO 100 SEATS,FULL MENU LIMITED SERVICE,39.978934, -105.13079,39.9789002,-105.1311492
FA0000783,PICAS MEXICAN TAQUERIA BOULDER,5360 ARAPAHOE RD UNIT F BOULDER CO USA,RESTAURANT 0 TO 100 SEATS,FULL MENU LIMITED SERVICE,40.014606, -105.227901,40.0138239,-105.2275209
FA0001327,BREWING MARKET,2525 ARAPAHOE RD BOULDER CO USA,RESTAURANT 0 TO 100 SEATS,FAST FOOD LIMITED MENU,40.014691, -105.26231,40.0145884,-105.1962555
FA0000974,GIOVANNITTI COFFEE,801 MAIN ST UNIT 110 LOUISVILLE CO USA,LIMITED FOOD SERVICE CONVENIENCE OTHER,FAST FOOD LIMITED MENU,39.977931, -105.132141,39.9779335,-105.1325197
FA0002210,LEVY MOTIONS (MOBILE),950 REGENT DR BOULDER CO USA,MOBILE UNIT FULL FOOD SERVICE,MOBILE UNITS,40.004012, -105.263525,40.004712,-105.2605424
FA0000677,CHINA GOURMET - BOULDER,3970 N BROADWAY ST 102 BOULDER CO USA,RESTAURANT 0 TO 100 SEATS,FULL SERVICE FULL MENU,40.047704, -105.282086,39.9903869,-105.2567228
FA0001373,NITRO CLUB,1124 PEARL ST BOULDER CO USA,RESTAURANT 0 TO 100 SEATS,FAST FOOD LIMITED MENU,40.017792, -105.280543,40.0175027,-105.2806253
FA0003792,ETOWN HALL,1535 SPRUCE ST BOULDER CO USA,RESTAURANT 0 TO 100 SEATS,FAST FOOD LIMITED MENU,40.019928, -105.275397,40.0203239,-105.2754856
FA0000218,7-ELEVEN 35345A,2250 MOUNTAIN VIEW AVE LONGMONT CO USA,GROCERY STORE W DELI 0 TO 15000 SQ FT,GROCERY FINISHED FOODS,40.18134, -105.130423,40.1815899,-105.1305096
FA0005008,MAD GREENS,994 W DILLON RD UNIT 100 LOUISVILLE CO USA,RESTAURANT 0 TO 100 SEATS,FAST FOOD LIMITED MENU,39.961157, -105.164052,39.9608777,-105.1642774
FA0004521,LE FRENCH CAFE,2525 ARAPAHOE AVE UNIT C1 BOULDER CO USA,RESTAURANT 0 TO 100 SEATS,FULL MENU LIMITED SERVICE,40.014691, -105.26231,40.0152398,-105.2600413
FA0001444,SUGARBEET THE,101 PRATT ST LONGMONT CO USA,RESTAURANT 101 TO 200 SEATS,FULL SERVICE FULL MENU,40.16068, -105.106918,40.1608017,-105.1075777
FA0000147,CANNON MINE COFFEE,210 S PUBLIC RD LAFAYETTE CO USA,RESTAURANT 0 TO 100 SEATS,FAST FOOD LIMITED MENU,39.99644, -105.090451,39.99641680000001,-105.090221
FA0000257,BREADWORKS,2644 BROADWAY ST BOULDER CO USA,RESTAURANT 0 TO 100 SEATS,FULL SERVICE FULL MENU,40.024938, -105.282048,40.02485739999999,-105.2808845
FA0001257,SUSHI AJI,489 HWY 287 UNIT 100 LAFAYETTE CO USA,RESTAURANT 0 TO 100 SEATS,FULL SERVICE FULL MENU,39.989786, -105.098773,40.001825,-105.103979
FA0001732,BUSABA,133 MCCASLIN BLVD UNIT H LOUISVILLE CO USA,RESTAURANT 0 TO 100 SEATS,FULL SERVICE FULL MENU,39.954737, -105.165705,39.97021489999999,-105.1639539
FA0001321,(CU) SEWALL DINING CENTER,1720 UNIVERSITY AVE BOULDER CO USA,RESTAURANT MORE THAN 200 SEATS,FULL SERVICE FULL MENU,,,40.0104719,-105.2720362
FA0004853,LONCHERA LOS PAISAS (MOBILE),3141 28TH ST BOULDER CO USA,MOBILE UNIT FULL FOOD SERVICE,MOBILE UNITS,40.031727, -105.258426,40.03166150000001,-105.2593591
FA0001641,ABOS PIZZA LONGMONT,1834 MAIN ST UNIT 8 LONGMONT CO USA,RESTAURANT 0 TO 100 SEATS,FAST FOOD LIMITED MENU,40.191274, -105.102342,40.191863,-105.1009746
FA0002879,NATURAL HOMESTEAD BEEF (PRE-PKG MOBILE 2),18494 WCR 39 RD Lasalle CO USA,MOBILE UNIT PREPACKAGED,PRE PACKAGED,40.267809, -104.696625,41.4990787,-88.8672714
FA0000411,SUSHI HANA JAPANESE CUISINE,2065 N MAIN ST LONGMONT CO USA,RESTAURANT 0 TO 100 SEATS,FULL SERVICE FULL MENU,40.19545, -105.102387,40.1954234,-105.1029186
FA0004518,HAMPTON INN & SUITES,6333 LOOKOUT RD BOULDER CO USA,RESTAURANT 0 TO 100 SEATS,FAST FOOD LIMITED MENU,40.071723, -105.205162,40.0724413,-105.205723
FA0005390,LA VITA BELLA CAFE,471 MAIN ST Longmont CO USA,RESTAURANT 0 TO 100 SEATS,FULL MENU LIMITED SERVICE,40.167104, -105.102507,40.1671014,-105.1028936
FA0000371,GREAT HARVEST BREAD COMPANY,2525 ARAPAHOE AVE UNIT A4 BOULDER CO USA,RESTAURANT 0 TO 100 SEATS,FAST FOOD LIMITED MENU,40.014691, -105.26231,40.0152398,-105.2600413
FA0000253,(CU) UMC FRONT HOUSE ALFERD PACKER,1669 EUCLID AVE UNIT 202UC BOULDER CO USA,RESTAURANT 0 TO 100 SEATS,FULL MENU LIMITED SERVICE,40.005924, -105.271062,40.0065706,-105.2717488
FA0001290,POINT CAFE THE,1101 13TH ST BOULDER CO USA,LIMITED FOOD SERVICE CONVENIENCE OTHER,FAST FOOD LIMITED MENU,40.007532, -105.276228,40.0074893,-105.2764208
FA0002680,KIKKA AT  WHOLE FOODS MARKET,2905 PEARL ST BOULDER CO USA,RESTAURANT 0 TO 100 SEATS,FAST FOOD LIMITED MENU,40.022903, -105.255661,40.02392700000001,-105.2559579
FA0000682,GUACAMOLES,827 KEN PRATT BLVD LONGMONT CO USA,RESTAURANT 0 TO 100 SEATS,FAST FOOD LIMITED MENU,40.152325, -105.106657,40.1516843,-105.1067555
FA0002750,OLD WORLD WOOD FIRE PIZZERIA/ BAVARIAN BAKERY,613 FRONTAGE RD LONGMONT CO USA,RESTAURANT 0 TO 100 SEATS,FULL SERVICE FULL MENU,40.151294, -105.119158,40.1514798,-105.1194544
FA0001549,STONE CUP THE,442 HIGH ST LYONS CO USA,RESTAURANT 0 TO 100 SEATS,FULL MENU LIMITED SERVICE,40.225378, -105.271354,40.2257675,-105.2712769
FA0004683,HYATT PLACE BOULDER,2280 JUNCTION PL BOULDER CO USA,RESTAURANT 0 TO 100 SEATS,FULL MENU LIMITED SERVICE,,,40.0242133,-105.2517848
FA0000422,KING SOOPERS 28,6550 LOOKOUT RD BOULDER CO USA,GROCERY STORE W DELI MORE THAN 15000 SQ FT,GROCERY FINISHED FOODS,40.072807, -105.201271,40.0718497,-105.2007869
FA0003487,PIZZERIA LOCALE,1730 PEARL ST BOULDER CO USA,RESTAURANT 0 TO 100 SEATS,FAST FOOD LIMITED MENU,40.019323, -105.273017,40.0192762,-105.2726469
FA0000436,FRASCA FOOD AND WINE,1738 PEARL ST BOULDER CO USA,RESTAURANT 0 TO 100 SEATS,FULL MENU LIMITED SERVICE,40.01942, -105.272545,40.0192053,-105.2724707
FA0001191,VERDE,3070 28TH ST UNIT B BOULDER CO USA,RESTAURANT 0 TO 100 SEATS,FULL SERVICE FULL MENU,40.031035, -105.258424,40.0307571,-105.257608
FA0000329,GOLD HILL GENERAL STORE AND PUB,531 MAIN ST BOULDER CO USA,RESTAURANT 0 TO 100 SEATS,FAST FOOD LIMITED MENU,40.0633, -105.410481,40.0631739,-105.4101255
FA0005063,FIREHOUSE SUBS,100 MCCASLIN BLVD UNIT 103 SUPERIOR CO USA,RESTAURANT 0 TO 100 SEATS,FULL MENU LIMITED SERVICE,39.955634, -105.165649,39.9556568,-105.1651615
FA0001198,WENDYS 4787,5350 ARAPAHOE AVE BOULDER CO USA,RESTAURANT 0 TO 100 SEATS,FAST FOOD LIMITED MENU,40.014606, -105.227919,40.0142343,-105.2274825
FA0001542,(CU) SEEC CAFE,4001 DISCOVERY DR BOULDER CO USA,RESTAURANT 0 TO 100 SEATS,FULL MENU LIMITED SERVICE,40.008976, -105.243869,40.008355,-105.2432814
FA0004787,PIZZA GARAGE THE,2675 13TH ST BOULDER CO USA,RESTAURANT 0 TO 100 SEATS,FULL MENU LIMITED SERVICE,40.025635, -105.280276,40.0251954,-105.2808075
FA0001515,COLD STONE CREAMERY,1087 S HOVER RD UNIT B LONGMONT CO USA,RESTAURANT 0 TO 100 SEATS,FAST FOOD LIMITED MENU,40.147641, -105.130866,40.1472632,-105.1315968
FA0000375,MICRO MOTION CAFE,7060 WINCHESTER CIR BOULDER CO USA,RESTAURANT 0 TO 100 SEATS,FULL MENU LIMITED SERVICE,40.079045, -105.193628,40.0779996,-105.1936144
FA0001524,RESIDENCE INN LONGMONT,1450 DRY CREEK DR LONGMONT CO USA,RESTAURANT 0 TO 100 SEATS,FULL MENU LIMITED SERVICE,40.139961, -105.133757,40.1398405,-105.1325654
FA0002245,INTA JUICE,1067 S HOVER RD UNIT A LONGMONT CO USA,RESTAURANT 0 TO 100 SEATS,FULL MENU LIMITED SERVICE,40.147984, -105.130853,40.1481374,-105.1315059
FA0004836,GOLD'S GYM LONGMONT,1240 HOVER ST UNIT 200 LONGMONT CO USA,RESTAURANT 0 TO 100 SEATS,FAST FOOD LIMITED MENU,40.179938, -105.130898,40.1463155,-105.1269071
FA0005034,CANDLEWOOD SUITES,1340 DRY CREEK DR LONGMONT CO USA,GROCERY STORE 0 TO 15000 SQ FT,GROCERY FINISHED FOODS,40.142574, -105.13392,40.1424973,-105.1329583
FA0003857,TWO HANDS MOBILE KITCHEN,5701 N ARAPAHOE AVE Boulder CO USA,MOBILE UNIT FULL FOOD SERVICE,MOBILE UNITS,40.014708, -105.220641,40.0151591,-105.2203213
FA0000624,PARKWAY RESTAURANT,4700 PEARL ST UNIT 4 BOULDER CO USA,RESTAURANT 101 TO 200 SEATS,FULL SERVICE FULL MENU,40.025137, -105.243532,40.0249054,-105.2433207
FA0003664,BECLA (BAKERY INSIDE SAVE A LOT),1750 MAIN ST LONGMONT CO USA,RESTAURANT 0 TO 100 SEATS,GROCERY FINISHED FOODS,40.190762, -105.102339,40.1909584,-105.1008524
FA0001381,HAYSTACK MOUNTAIN GOAT DAIRY,505 WEAVER PARK RD UNIT F LONGMONT CO USA,GROCERY STORE 0 TO 15000 SQ FT,GROCERY FINISHED FOODS,40.16239, -105.080973,40.1618422,-105.0812236
FA0003307,NOODLES AND COMPANY #146,1600 28TH ST UNIT 1208 BOULDER CO USA,RESTAURANT 101 TO 200 SEATS,FAST FOOD LIMITED MENU,40.018321, -105.258281,40.01545830000001,-105.2578894
FA0002703,TACO PALACE LONGMONT,305 KEN PRATT BLVD LONGMONT CO USA,RESTAURANT 0 TO 100 SEATS,FULL MENU LIMITED SERVICE,40.152412, -105.09797,40.1519366,-105.0978029
FA0005418,POPEYES #425,2130 MAIN ST Longmont CO USA,RESTAURANT 0 TO 100 SEATS,FAST FOOD LIMITED MENU,40.196791, -105.102409,40.1966164,-105.1010002
FA0000011,ABOS PIZZA,7960 NIWOT RD UNIT B5 NIWOT CO USA,RESTAURANT 0 TO 100 SEATS,FAST FOOD LIMITED MENU,40.101612, -105.168147,40.1007395,-105.1681252
FA0000962,TONIC ALCHEMY LOUNGE,2011 10TH ST BOULDER CO USA,LIMITED FOOD SERVICE CONVENIENCE OTHER,FULL SERVICE FULL MENU,40.017953, -105.282817,40.0175798,-105.2829121
FA0000655,COVERED WAGON,15 E FIRST ST NEDERLAND CO USA,RESTAURANT 0 TO 100 SEATS,FULL SERVICE FULL MENU,39.961888, -105.509973,39.96205339999999,-105.5100258
FA0001291,LAST STAND TAVERN,32138 HWY 72 GOLDEN CO USA,RESTAURANT 0 TO 100 SEATS,FULL MENU LIMITED SERVICE,39.92018, -105.371404,39.9199804,-105.3708906
FA0001779,HOPI BREAD @ LMGT FARM MRKT (SPECIAL EVENT),2500 47th ST UNIT 18 BOULDER CO USA,SPECIAL EVENT,SPECIAL EVENT,40.025998, -105.244203,40.0258297,-105.2432584
FA0003598,TORTILLERIA LA ESMERALDA(PRE-PKG FMRS MRKT),2393 27 ST UNIT 524 GREELEY CO USA,MOBILE UNIT PREPACKAGED,PRE PACKAGED,,,40.3942106,-104.718918
FA0000995,DURANGO MEXICAN RESTAURANT,1445 NELSON RD UNIT E LONGMONT CO USA,RESTAURANT 0 TO 100 SEATS,FAST FOOD LIMITED MENU,40.152365, -105.119128,40.1520246,-105.1189414
FA0000098,BLACKJACK PIZZA AND SALADS,3023 WALNUT ST BOULDER CO USA,RESTAURANT 0 TO 100 SEATS,FAST FOOD LIMITED MENU,40.020084, -105.251681,40.0206928,-105.2531625
FA0002989,REBECCAS HERBAL APOTHECARY & S,1227 SPRUCE ST BOULDER CO USA,GROCERY STORE 0 TO 15000 SQ FT,GROCERY FINISHED FOODS,40.019062, -105.279554,40.0192893,-105.2796892
FA0004750,AFC SUSHI (INSIDE SAFEWAY #1667),3333 ARAPAHOE RD ERIE CO USA,RESTAURANT 0 TO 100 SEATS,FULL MENU LIMITED SERVICE,40.015299, -105.101339,40.0169254,-105.1007718
FA0002792,CENTURY THEATRE,1700 29TH ST BOULDER CO USA,RESTAURANT 0 TO 100 SEATS,FULL MENU LIMITED SERVICE,40.017562, -105.255903,40.0172524,-105.2543182
FA0002294,JIN CHAN ZHANG RESTAURANT,2835 28TH ST BOULDER CO USA,RESTAURANT 0 TO 100 SEATS,FULL SERVICE FULL MENU,40.028127, -105.258397,40.0275335,-105.2576977
FA0001362,LAS AMERICAS TORTILLERIA,830 LASHLEY ST STE D LONGMONT CO USA,GROCERY STORE W DELI 0 TO 15000 SQ FT,GROCERY FINISHED FOODS,40.173475, -105.088302,40.1733333,-105.0877778
FA0003663,GUCKENHEIMER@ GOOGLE RED ROCKS (2600),2600 PEARL ST BOULDER CO USA,RESTAURANT 101 TO 200 SEATS,FULL SERVICE FULL MENU,40.021828, -105.260342,40.0215496,-105.2602588
FA0004956,WHOLE FOODS MARKET,695 S BROADWAY ST BOULDER CO USA,GROCERY STORE W DELI MORE THAN 15000 SQ FT,GROCERY FINISHED FOODS,39.983299, -105.248005,39.9829363,-105.2484627
FA0003243,DRY STORAGE,3601 ARAPAHOE UNIT D181 BOULDER CO USA,RESTAURANT 0 TO 100 SEATS,FULL MENU LIMITED SERVICE,40.014686, -105.248032,40.0152135,-105.2482341
FA0002393,SKY COFFEE,200 EXEMPLA CIR LAFAYETTE CO USA,RESTAURANT 0 TO 100 SEATS,FAST FOOD LIMITED MENU,39.969753, -105.083065,39.9702375,-105.0860399
FA0000182,MAMAS CAFE,950 ELGIN AVE UNIT B LONGMONT CO USA,RESTAURANT 0 TO 100 SEATS,FULL SERVICE FULL MENU,40.153411, -105.107938,40.15370470000001,-105.1079628
FA0003464,LA CHOZA #3,1203 13TH ST UNIT A BOULDER CO USA,RESTAURANT 0 TO 100 SEATS,FULL MENU LIMITED SERVICE,40.008849, -105.276223,40.0088426,-105.2763961
FA0000997,DILLINGERS BAR AND GRILL,1202 CENTAUR VILLAGE DR LAFAYETTE CO USA,RESTAURANT 101 TO 200 SEATS,FULL SERVICE FULL MENU,39.988644, -105.108455,39.9858184,-105.1068468
FA0000758,SMASHBURGER,994 W DILLON RD UNIT 500 LOUISVILLE CO USA,RESTAURANT 0 TO 100 SEATS,FULL SERVICE FULL MENU,39.961157, -105.164052,39.9607009,-105.1641366
FA0004745,BREADWORKS (MOBILE PRE-PKG),2644 N BROADWAY ST BOULDER CO USA,MOBILE UNIT PREPACKAGED,PRE PACKAGED,40.024938, -105.282048,40.02485739999999,-105.2808845
FA0004866,ABUELITAS EMPANADAS,332 MAIN ST UNIT A5 LONGMONT CO USA,RESTAURANT 0 TO 100 SEATS,FAST FOOD LIMITED MENU,40.164628, -105.102515,40.1646462,-105.1021878
FA0001662,LE PEEP,1225 KEN PRATT BLVD UNIT 116 LONGMONT CO USA,RESTAURANT 101 TO 200 SEATS,FULL SERVICE FULL MENU,40.152326, -105.114332,40.1519556,-105.1147028
FA0001294,CHIPOTLE MEXICAN GRILL #13,1100 KEN PRATT BLVD STE B LONGMONT CO USA,RESTAURANT 0 TO 100 SEATS,FAST FOOD LIMITED MENU,40.152317, -105.111382,40.1528437,-105.1111177
FA0002132,GONDOLIER,4800 BASELINE RD UNIT A104 BOULDER CO USA,RESTAURANT 101 TO 200 SEATS,FULL SERVICE FULL MENU,40.000017, -105.234005,39.9980269,-105.2328968
FA0000675,PUMPHOUSE RED ZONE,540 MAIN ST LONGMONT CO USA,RESTAURANT MORE THAN 200 SEATS,FULL SERVICE FULL MENU,40.168741, -105.102508,40.1687378,-105.102082
FA0004883,ARCANA RESTAURANT,909 WALNUT ST BOULDER CO USA,RESTAURANT 101 TO 200 SEATS,FULL SERVICE FULL MENU,40.016153, -105.283164,40.0163804,-105.2832568
FA0000510,LONGMONT PACKING 1 CARNICERIA,823 KEN PRATT BLVD LONGMONT CO USA,GROCERY STORE 0 TO 15000 SQ FT,GROCERY FINISHED FOODS,40.152324, -105.106717,40.1516843,-105.1067555
FA0004907,AFC SUSHI @ SAFEWAY #1116,1050 KEN PRATT BLVD RD LONGMONT CO USA,RESTAURANT 0 TO 100 SEATS,FULL MENU LIMITED SERVICE,40.152334, -105.109672,40.1529514,-105.1104554
FA0005151,APERITIVO,5530 SPINE RD BOULDER CO USA,RESTAURANT 0 TO 100 SEATS,FAST FOOD LIMITED MENU,40.073671, -105.202189,40.0748878,-105.2020666
FA0002704,A CUP OF PEACE,3216 ARAPAHOE AVE UNIT B BOULDER CO USA,RESTAURANT 0 TO 100 SEATS,FAST FOOD LIMITED MENU,40.01457, -105.250335,40.0142798,-105.2504029
FA0002668,CHIPOTLE MEXICAN GRILL #894,1650 28th ST 2-E 1224 BOULDER CO USA,RESTAURANT 0 TO 100 SEATS,FAST FOOD LIMITED MENU,40.016032, -105.258263,40.0166539,-105.2579263
FA0000234,ALPINE MODERN,904 COLLEGE AVE BOULDER CO USA,RESTAURANT 0 TO 100 SEATS,FULL MENU LIMITED SERVICE,40.007285, -105.281739,40.0071284,-105.2817249
FA0004500,MODMARKET,700 KEN PRATT BLVD UNIT 100 LONGMONT CO USA,RESTAURANT 101 TO 200 SEATS,FULL MENU LIMITED SERVICE,40.152527, -105.104968,40.15324880000001,-105.1054648
FA0004942,SAM'S CLUB #4987,1200 S HOVER RD LONGMONT CO USA,GROCERY STORE W DELI MORE THAN 15000 SQ FT,GROCERY FINISHED FOODS,40.145511, -105.130729,40.1490253,-105.1305046
FA0005381,RAGLIN MARKET,5378 GUNBARREL CENTER CT UNIT 2 Boulder CO USA,RESTAURANT 0 TO 100 SEATS,FULL MENU LIMITED SERVICE,40.071947, -105.199521,40.07221250000001,-105.1993223
FA0001260,UCAR,3080 CENTER GREEN DR BOULDER CO USA,RESTAURANT 101 TO 200 SEATS,FULL MENU LIMITED SERVICE,40.031324, -105.245865,40.0319049,-105.2458517
FA0000446,HOPI BREAD @ BLDR FARM MRKT (SPECIAL EVENT),2500 47TH ST UNIT 18 BOULDER CO USA,SPECIAL EVENT,SPECIAL EVENT,40.025998, -105.244203,40.0258297,-105.2432584
FA0004996,MOD PIZZA,994 W DILLON RD UNIT 600 LOUISVILLE CO USA,RESTAURANT 0 TO 100 SEATS,FAST FOOD LIMITED MENU,39.961157, -105.164052,39.9604539,-105.164314
FA0003814,BOULDER SALAD,1310 COLLEGE AVE UNIT 200 BOULDER CO USA,RESTAURANT 0 TO 100 SEATS,FAST FOOD LIMITED MENU,40.007302, -105.275896,40.0071181,-105.2759597
FA0001018,VILLAGE PLACE AT LONGMONT,600 COFFMAN ST LONGMONT CO USA,NO FEE LICENSE K12 SCHOOLS NON PROFIT,RESIDENTIAL FACILITIES,40.169396, -105.103819,40.1692156,-105.1034823
FA0000909,DICKENS TAVERN,300 MAIN ST LONGMONT CO USA,RESTAURANT 101 TO 200 SEATS,FULL SERVICE FULL MENU,40.164144, -105.102516,40.1641419,-105.1021362
FA0003791,SUPERIOR LIQUOR,100 SUPERIOR PLAZA WY SUPERIOR CO USA,GROCERY STORE 0 TO 15000 SQ FT,GROCERY FINISHED FOODS,39.956019, -105.163997,39.9558144,-105.1652676
FA0002697,KENTUCKY FRIED CHICKEN  A AND W,2604 N MAIN ST LONGMONT CO USA,RESTAURANT 0 TO 100 SEATS,FAST FOOD LIMITED MENU,40.205113, -105.102445,40.2050886,-105.1017317
FA0004872,MALDOS COFFEE & BOBA,332 MAIN ST UNIT B4 LONGMONT CO USA,RESTAURANT 0 TO 100 SEATS,FAST FOOD LIMITED MENU,40.164628, -105.102515,40.164606,-105.1021743
FA0004848,BAD DADDY'S BURGER BAR,1232 S HOVER ST UNIT B300 LONGMONT CO USA,RESTAURANT 101 TO 200 SEATS,FULL SERVICE FULL MENU,40.145147, -105.13073,40.1476756,-105.1292531
FA0000047,SAVE A LOT,1750 N MAIN ST LONGMONT CO USA,GROCERY STORE  MORE THAN 15000 SQ FT,GROCERY FINISHED FOODS,40.190762, -105.102339,40.1909584,-105.1008524
FA0000331,KATHMANDU RESTAURANT II,1964 28TH ST BOULDER CO USA,RESTAURANT 101 TO 200 SEATS,FULL SERVICE FULL MENU,40.021144, -105.258324,40.0212448,-105.2575637
FA0000387,LINDSAYS BOULDER DELI AT HAAGEN DAZ,1148 PEARL ST BOULDER CO USA,RESTAURANT 0 TO 100 SEATS,FULL MENU LIMITED SERVICE,40.017869, -105.280195,40.0177386,-105.2801068
FA0001585,TANDOORI KITCHEN,199 W SOUTH BOULDER RD LAFAYETTE CO USA,RESTAURANT 0 TO 100 SEATS,FULL SERVICE FULL MENU,39.986986, -105.091916,39.9886413,-105.0914998
FA0003813,HISSHO SUSHI #323(INSIDE SPROUTS),1101 S HOVER ST LONGMONT CO USA,RESTAURANT 0 TO 100 SEATS,FULL MENU LIMITED SERVICE,40.145777, -105.130836,40.1459316,-105.13322
FA0005179,LA RUE BAYOU (MOBILE),4920 PEARL ST UNIT D BOULDER CO USA,MOBILE UNIT FULL FOOD SERVICE,MOBILE UNITS,40.025673, -105.238076,40.025388,-105.2377392
FA0002513,PANDA EXPRESS#1100,301 CENTER DR SUPERIOR CO USA,RESTAURANT 0 TO 100 SEATS,FAST FOOD LIMITED MENU,39.95769, -105.16937,39.9578759,-105.1694372
FA0004696,BOULDER INDOOR SOCCER,3203 PEARL ST BOULDER CO USA,RESTAURANT 0 TO 100 SEATS,FAST FOOD LIMITED MENU,40.024098, -105.24955,40.02487139999999,-105.2501085
FA0002449,SUBWAY EXEMPLA 33266,200 EXEMPLA CIR UNIT R1360 LAFAYETTE CO USA,RESTAURANT 0 TO 100 SEATS,FAST FOOD LIMITED MENU,39.969753, -105.083065,39.9704626,-105.0863198
FA0001587,PANADERY Y NEVERIA GUANAJUATO,1630 MAIN ST UNIT LONGMONT CO USA,GROCERY STORE W DELI 0 TO 15000 SQ FT,GROCERY FINISHED FOODS,40.187276, -105.102323,40.1873463,-105.1013656
FA0005435,STYRIA BAKERY @ LMGT FRM MRKT (SPECIAL EVENT),340 5TH ST Frederick CO USA,SPECIAL EVENT,SPECIAL EVENT,40.098638, -104.937546,40.09831519999999,-104.9369233
FA0003336,SAVORY SAIGON COMISSARY (SPECIAL EVENT),1355 E S BOULDER RD UNIT C2 Louisville CO USA,SPECIAL EVENT,SPECIAL EVENT,39.986952, -105.125205,39.98799899999999,-105.1255301
FA0003821,TACO WAGON,503 S PUBLIC RD LAFAYETTE CO USA,RESTAURANT 0 TO 100 SEATS,FAST FOOD LIMITED MENU,39.993749, -105.090464,39.994004,-105.0906777
FA0002840,STARBUCKS COFFEE 10867,2800 ROCK CREEK CIR UNIT A-1 SUPERIOR CO USA,LIMITED FOOD SERVICE CONVENIENCE OTHER,FAST FOOD LIMITED MENU,,,39.9280596,-105.1476878
FA0000768,SAFEWAY STORE 1116,1050 KEN PRATT BLVD UNIT 1 LONGMONT CO USA,GROCERY STORE W DELI MORE THAN 15000 SQ FT,GROCERY FINISHED FOODS,40.152334, -105.109672,40.1529514,-105.1104554
FA0000389,HAMPTON INN LOUISVILLE,912 W DILLON RD LOUISVILLE CO USA,RESTAURANT 0 TO 100 SEATS,FAST FOOD LIMITED MENU,39.958904, -105.160931,39.9585308,-105.1627658
FA0004910,BASECAMP HOTEL,2020 ARAPAHOE AVE BOULDER CO USA,RESTAURANT 0 TO 100 SEATS,FULL MENU LIMITED SERVICE,40.014606, -105.268522,40.0137568,-105.2684682
FA0000847,TACO BELL #33852,2450 BASELINE RD BOULDER CO USA,RESTAURANT 0 TO 100 SEATS,FAST FOOD LIMITED MENU,40.000167, -105.262404,39.9997436,-105.2623424
FA0002471,CARLS JR #7525,1754 HOVER ST LONGMONT CO USA,RESTAURANT 0 TO 100 SEATS,FAST FOOD LIMITED MENU,40.190114, -105.130925,40.1901404,-105.1301213
FA0004846,FUZZYS TACO SHOP,1230 S HOVER ST UNIT A300 LONGMONT CO USA,RESTAURANT 0 TO 100 SEATS,FAST FOOD LIMITED MENU,40.145169, -105.13073,40.1479777,-105.1272233
FA0000685,PERSIMMON GRILL AT LAKE VALLEY GOLF,4400 LAKE VALLEY DR LONGMONT CO USA,RESTAURANT 101 TO 200 SEATS,FULL SERVICE FULL MENU,40.096664, -105.250637,40.0966294,-105.25148
FA0003452,KRISHNA GRANDE,400 W SOUTH BOULDER RD UNIT 2800 LAFAYETTE CO USA,GROCERY STORE 0 TO 15000 SQ FT,GROCERY FINISHED FOODS,39.986898, -105.094961,39.9856206,-105.0950923
FA0004661,NAKED LUNCH,3301 ARAPAHOE AVE UNIT E166 BOULDER CO USA,RESTAURANT 0 TO 100 SEATS,FAST FOOD LIMITED MENU,40.014701, -105.249341,40.0154049,-105.2493041
FA0004763,SILVER CANYON COFFEE DRIP BAR @ LMGT FRM MRKT (SPECIAL EVENT),5601 N BROADWAY ST BOULDER CO USA,SPECIAL EVENT,SPECIAL EVENT,40.072856, -105.283349,40.0648486,-105.2818823
FA0002435,PANERA BREAD #2432,302 CENTER DR UNIT A SUPERIOR CO USA,RESTAURANT 101 TO 200 SEATS,FAST FOOD LIMITED MENU,39.95762, -105.169371,39.9557406,-105.1689802
FA0005267,LAS DELICIAS (INSIDE SAVE-A-LOT),1750 N MAIN ST Longmont CO USA,RESTAURANT 0 TO 100 SEATS,FAST FOOD LIMITED MENU,40.190762, -105.102339,40.1909584,-105.1008524
FA0000670,ATLAS VALLEY PURVEYORS,2770 ARAPAHOE RD LAFAYETTE CO USA,GROCERY STORE W DELI 0 TO 15000 SQ FT,GROCERY FINISHED FOODS,40.014659, -105.131651,40.0136364,-105.1325654
FA0002108,GOOD TIMES BURGERS AND FROZEN CUSTARD,575 SOUTH BOULDER RD LAFAYETTE CO USA,RESTAURANT 0 TO 100 SEATS,FAST FOOD LIMITED MENU,39.987034, -105.097154,39.9869279,-105.0857496
FA0002143,SAIGON EXPRESS,1225 KEN PRATT BLVD UNIT 110 LONGMONT CO USA,RESTAURANT 0 TO 100 SEATS,FULL SERVICE FULL MENU,40.152326, -105.114332,40.1519532,-105.1143
FA0002855,SPROUTS FARMERS MARKET,2525 ARAPAHOE AVE UNIT E65 BOULDER CO USA,GROCERY STORE W DELI MORE THAN 15000 SQ FT,GROCERY FINISHED FOODS,40.014691, -105.26231,40.0152398,-105.2600413
FA0000613,PANADERIA LA PANDA BAKERY,609 KEN PRATT BLVD LONGMONT CO USA,RESTAURANT 0 TO 100 SEATS,FAST FOOD LIMITED MENU,40.152365, -105.103241,40.1517349,-105.1034871
FA0004960,CULVER'S OF LONGMONT,1218 S HOVER RD LONGMONT CO USA,RESTAURANT 0 TO 100 SEATS,FULL MENU LIMITED SERVICE,40.148487, -105.130704,40.1488733,-105.1306839
FA0002168,RED ROBIN AMERICAS GOURMET BURGERS,2331 CLOVER BASIN DR LONGMONT CO USA,RESTAURANT MORE THAN 200 SEATS,FULL SERVICE FULL MENU,40.14409, -105.131505,40.143539,-105.1315146
FA0004974,KONA ICE OF BOULDER (MOBILE),299 WALNUT ST Denver CO USA,MOBILE UNIT FULL FOOD SERVICE,MOBILE UNITS,39.742646, -105.013358,39.7435348,-105.0152887
FA0000764,SAFEWAY STORE 1667,3333 ARAPAHOE RD UNIT B ERIE CO USA,GROCERY STORE W DELI MORE THAN 15000 SQ FT,GROCERY FINISHED FOODS,40.015299, -105.101339,40.0169254,-105.1007718
FA0003811,CHEESE IMPORTERS,103 MAIN ST LONGMONT CO USA,GROCERY STORE W DELI 0 TO 15000 SQ FT,GROCERY FINISHED FOODS,40.160561, -105.102534,40.1605615,-105.1029186
FA0002297,SPRUCE CONFECTIONS,4684 BROADWAY ST BOULDER CO USA,RESTAURANT 0 TO 100 SEATS,FAST FOOD LIMITED MENU,40.059614, -105.282129,40.0596799,-105.281855
FA0000115,BURGER KING #7885,2000 N MAIN ST LONGMONT CO USA,RESTAURANT 0 TO 100 SEATS,FAST FOOD LIMITED MENU,40.194036, -105.102357,40.1941401,-105.1018452
FA0000021,ROCKY MOUNTAIN PATHWAY RANCH,15747 HWY 7 ALLENSPARK CO USA,RESTAURANT 0 TO 100 SEATS,FULL MENU LIMITED SERVICE,40.192537, -105.512202,40.1934368,-105.5112163
FA0002356,AMANTE UPTOWN,4580 BROADWAY ST UNIT A BOULDER CO USA,RESTAURANT 0 TO 100 SEATS,FAST FOOD LIMITED MENU,40.057632, -105.282127,40.0575766,-105.2818477
FA0000770,BEST WESTERN PLUS,960 W DILLON RD LOUISVILLE CO USA,RESTAURANT 0 TO 100 SEATS,FAST FOOD LIMITED MENU,39.960218, -105.162441,39.95985200000001,-105.1628572
FA0000594,BEST WESTERN PLUS BOULDER INN,770 28TH ST BOULDER CO USA,LIMITED FOOD SERVICE CONVENIENCE OTHER,FAST FOOD LIMITED MENU,40.001353, -105.258026,40.0015558,-105.2574744
FA0003255,LAUGHING GOAT NORLIN,1720 PLEASANT ST BOULDER CO USA,RESTAURANT 0 TO 100 SEATS,FAST FOOD LIMITED MENU,40.009433, -105.272515,40.008826,-105.2704048
FA0001202,NEDS,121 N JEFFERSON ST NEDERLAND CO USA,RESTAURANT 0 TO 100 SEATS,FULL SERVICE FULL MENU,39.962073, -105.511266,39.96208350000001,-105.5110271
FA0005198,GUCKENHEIMER@ ALTITUDE CAFE,2930 PEARL ST BOULDER CO USA,RESTAURANT MORE THAN 200 SEATS,FULL MENU LIMITED SERVICE,40.023004, -105.255167,40.0216013,-105.2545612
FA0000372,GREENBRIAR INN THE,8735 N FOOTHILLS HWY BOULDER CO USA,RESTAURANT MORE THAN 200 SEATS,FULL SERVICE FULL MENU,40.132177, -105.282291,40.13329359999999,-105.282708
FA0001084,SINK THE,1165 13TH ST BOULDER CO USA,RESTAURANT 101 TO 200 SEATS,FULL SERVICE FULL MENU,40.008504, -105.276222,40.0085813,-105.2764048
FA0000830,SUSHI ZANMAI,1221 SPRUCE ST BOULDER CO USA,RESTAURANT 101 TO 200 SEATS,FULL SERVICE FULL MENU,40.019024, -105.279734,40.0192646,-105.2798721
FA0003836,JFE (KS-102),1611 PACE ST LONGMONT CO USA,RESTAURANT 0 TO 100 SEATS,FULL MENU LIMITED SERVICE,40.187012, -105.074126,40.186645,-105.0760629
FA0001007,BLOFISH,1932 14TH ST BOULDER CO USA,RESTAURANT 0 TO 100 SEATS,FULL SERVICE FULL MENU,40.018027, -105.277222,40.0180908,-105.2770194
FA0000351,SNARFS,6562 LOOKOUT RD BOULDER CO USA,RESTAURANT 0 TO 100 SEATS,FAST FOOD LIMITED MENU,40.072804, -105.20096,40.0722488,-105.2007355
FA0000603,OUTBACK SALOON THE,3141 28TH ST UNIT B BOULDER CO USA,RESTAURANT 101 TO 200 SEATS,FULL SERVICE FULL MENU,40.031727, -105.258426,40.03166150000001,-105.2593591
FA0002339,ST JULIEN HOTEL AND SPA,900 WALNUT ST BOULDER CO USA,RESTAURANT MORE THAN 200 SEATS,FULL SERVICE FULL MENU,40.01626, -105.282634,40.0159802,-105.2824681
FA0002631,YELLOW DELI THE,908 W PEARL ST BOULDER CO USA,RESTAURANT 0 TO 100 SEATS,FULL SERVICE FULL MENU,40.017119, -105.283687,40.0168837,-105.283366
FA0002828,PANDA EXPRESS #1493,155 E KEN PRATT AVE LONGMONT CO USA,RESTAURANT 0 TO 100 SEATS,FAST FOOD LIMITED MENU,,,40.1517562,-105.0916597
FA0004949,GEORGIA BOY BBQ (MOBILE),250 3RD AVE LONGMONT CO USA,MOBILE UNIT FULL FOOD SERVICE,MOBILE UNITS,40.163933, -105.097625,40.1641833,-105.0974375
FA0002527,CUGINI PIZZERIA,385 CROSSING DR UNIT 105 LAFAYETTE CO USA,RESTAURANT 0 TO 100 SEATS,FULL MENU LIMITED SERVICE,40.001142, -105.100357,40.0012517,-105.1006805
FA0000957,MALEE THAI,2939 17TH AVE LONGMONT CO USA,RESTAURANT 0 TO 100 SEATS,FULL SERVICE FULL MENU,40.188532, -105.14237,40.1883844,-105.1424108
FA0000350,CORNER THE,1100 13TH ST BOULDER CO USA,RESTAURANT 0 TO 100 SEATS,FAST FOOD LIMITED MENU,40.007459, -105.27622,40.0074268,-105.2760395
FA0000536,TACO JUNKY,1149 13TH ST BOULDER CO USA,RESTAURANT 0 TO 100 SEATS,FULL SERVICE FULL MENU,40.008261, -105.276223,40.00826490000001,-105.2764618
FA0003782,JFE SNOWFOX KS061,1650 30TH ST BOULDER CO USA,RESTAURANT 0 TO 100 SEATS,FAST FOOD LIMITED MENU,40.015659, -105.253601,40.0157862,-105.2518457
FA0003491,DAIRY QUEEN,305 EXEMPLA CIR LAFAYETTE CO USA,RESTAURANT 0 TO 100 SEATS,FAST FOOD LIMITED MENU,39.972371, -105.088202,39.9727036,-105.0882342
FA0000578,MILE HIGH PHO,1100 W DILLON RD LOUISVILLE CO USA,RESTAURANT 0 TO 100 SEATS,FULL MENU LIMITED SERVICE,39.961798, -105.16614,39.9612135,-105.166467
FA0002481,BREWING MARKET,2610 BASELINE RD BOULDER CO USA,RESTAURANT 0 TO 100 SEATS,FAST FOOD LIMITED MENU,40.000259, -105.261413,39.9996008,-105.2611072
FA0001543,WAHOOS FISH TACO,1087 S HOVER ST LONGMONT CO USA,RESTAURANT 101 TO 200 SEATS,FULL MENU LIMITED SERVICE,40.147641, -105.130866,40.1470806,-105.1314918
FA0004861,SPICE EXCHANGE,205 E WOODWARD AVE KEENSBURG CO USA,SPECIAL EVENT,SPECIAL EVENT,40.109315, -104.518281,40.1095161,-104.5183298
FA0002383,SACHI SUSHI,7980 NIWOT RD LONGMONT CO USA,RESTAURANT 0 TO 100 SEATS,FAST FOOD LIMITED MENU,40.101625, -105.167158,40.1010572,-105.1670731
FA0001406,CASPIAN DELI AND GROCERY,2607 PEARL ST BOULDER CO USA,RESTAURANT 0 TO 100 SEATS,GROCERY FINISHED FOODS,40.021875, -105.260841,40.0220141,-105.2606057
FA0000545,MOES BROADWAY BAGEL,3075 ARAPAHOE RD BOULDER CO USA,RESTAURANT 0 TO 100 SEATS,FAST FOOD LIMITED MENU,,,40.0148045,-105.213055
FA0003551,BOULDER CREEK LODGE THE,55 LAKEVIEW DR NEDERLAND CO USA,RESTAURANT 0 TO 100 SEATS,FULL MENU LIMITED SERVICE,39.960643, -105.509245,39.9610065,-105.5096595
FA0000829,PROTOS PIZZA,600 S AIRPORT RD BLDG B-L LONGMONT CO USA,RESTAURANT 0 TO 100 SEATS,FULL SERVICE FULL MENU,40.151853, -105.154534,40.1512854,-105.1531705
FA0000462,LA QUINTA INN 952,902 DILLON RD LOUISVILLE CO USA,RESTAURANT 0 TO 100 SEATS,FAST FOOD LIMITED MENU,,,39.958752,-105.1619891
FA0002815,MURPHYS SOUTH,657 S BROADWAY ST BOULDER CO USA,RESTAURANT 101 TO 200 SEATS,FULL SERVICE FULL MENU,39.983836, -105.248481,39.98387330000001,-105.2488208
FA0001200,WEST END TAVERN,926 PEARL ST BOULDER CO USA,RESTAURANT 101 TO 200 SEATS,BARS FRATERNAL ORGANIZATIONS,40.017204, -105.283296,40.0170002,-105.2832452
FA0004879,1914 HOUSE,121 2ND AVE NIWOT CO USA,RESTAURANT 101 TO 200 SEATS,FULL SERVICE FULL MENU,40.103372, -105.172543,40.1032911,-105.1727711
FA0003512,MARCOS PIZZA,459 S MCCASLIN BLVD LOUISVILLE CO USA,RESTAURANT 0 TO 100 SEATS,FAST FOOD LIMITED MENU,39.964244, -105.163543,39.9648577,-105.1641366
FA0000413,KING SOOPERS 80,995 S HOVER RD LONGMONT CO USA,GROCERY STORE W DELI MORE THAN 15000 SQ FT,GROCERY FINISHED FOODS,40.150486, -105.130772,40.1505035,-105.1341187
FA0002027,LEVY BOULDER PIZZA CO (MOBILE),2085 COLORADO BLVD BOULDER CO USA,RESTAURANT 0 TO 100 SEATS,FULL SERVICE FULL MENU,40.008247, -105.266408,40.008599,-105.2672299
FA0000332,DOTS DINER,2716 28TH ST BOULDER CO USA,RESTAURANT 0 TO 100 SEATS,FULL MENU LIMITED SERVICE,40.027674, -105.258397,40.0274789,-105.2573597
FA0000678,SPRUCE FARM,2115 13TH ST BOULDER CO USA,RESTAURANT 101 TO 200 SEATS,FULL SERVICE FULL MENU,40.019465, -105.279106,40.0194026,-105.2794143
FA0003815,WALGREENS #19547,3348 28TH ST BOULDER CO USA,LIMITED FOOD SERVICE CONVENIENCE OTHER,GROCERY FINISHED FOODS,40.035349, -105.258342,40.0353486,-105.2572405
FA0003566,JIMMY JOHNS #1431,2318 17TH AVE Longmont CO USA,RESTAURANT 0 TO 100 SEATS,FAST FOOD LIMITED MENU,40.188579, -105.12901,40.1890994,-105.12987
FA0000840,TACO BELL #33866,3255 28TH ST BOULDER CO USA,RESTAURANT 0 TO 100 SEATS,FAST FOOD LIMITED MENU,40.033787, -105.258515,40.0336669,-105.2590958
FA0003833,NORTH BOULDER LIQUOR,3990 N BROADWAY UNIT A BOULDER CO USA,GROCERY STORE 0 TO 15000 SQ FT,GROCERY FINISHED FOODS,,,40.047704,-105.281915
FA0000165,MURPHY'S TAP HOUSE,585 MCCASLIN BLVD LOUISVILLE CO USA,RESTAURANT 0 TO 100 SEATS,FULL SERVICE FULL MENU,39.94841, -105.164461,39.9622243,-105.1652104
FA0001660,MARROCCOS,8 UTICA ST WARD CO USA,RESTAURANT 0 TO 100 SEATS,FULL SERVICE FULL MENU,40.068846, -105.504574,40.0689214,-105.5043255
FA0002169,SUBWAY 30680,1635 PACE ST LONGMONT CO USA,RESTAURANT 0 TO 100 SEATS,FAST FOOD LIMITED MENU,40.18781, -105.074117,40.1879212,-105.0746929
FA0000238,FANS CHINESE CUISINE,7960 NIWOT RD UNIT C9 NIWOT CO USA,RESTAURANT 0 TO 100 SEATS,FULL SERVICE FULL MENU,40.101612, -105.168147,40.10004929999999,-105.1672438
FA0000534,TACOS AL MOLCAJETE,926 MAIN ST LONGMONT CO USA,RESTAURANT 0 TO 100 SEATS,FULL MENU LIMITED SERVICE,40.174785, -105.102464,40.1748109,-105.1020279
FA0001005,LAUGHING GOAT COFFEE HOUSE,1709 PEARL ST Boulder CO USA,RESTAURANT 0 TO 100 SEATS,FULL SERVICE FULL MENU,40.019315, -105.273055,40.0195034,-105.273098
FA0000882,ILLEGAL PETES,1124 13TH ST BOULDER CO USA,RESTAURANT 0 TO 100 SEATS,FAST FOOD LIMITED MENU,40.007831, -105.276226,40.0078243,-105.2759595
FA0004568,LULUS BBQ (SPECIAL EVENT),701 B MAIN ST LOUISVILLE CO USA,SPECIAL EVENT,SPECIAL EVENT,39.977054, -105.132138,39.9769925,-105.1325197
FA0000658,JANIES CAFE,431 MAIN ST LONGMONT CO USA,RESTAURANT 0 TO 100 SEATS,FULL SERVICE FULL MENU,40.166386, -105.102511,40.1664027,-105.1029414
FA0003583,CURED,1825 PEARL ST UNIT B BOULDER CO USA,RESTAURANT 0 TO 100 SEATS,FAST FOOD LIMITED MENU,40.019657, -105.271393,40.0200071,-105.2714756
FA0000342,DOUBLE HAPPY RESTAURANT,740 MAIN ST LOUISVILLE CO USA,RESTAURANT 0 TO 100 SEATS,FULL SERVICE FULL MENU,39.977645, -105.13214,39.977637,-105.1319486
FA0003473,RIPPLE PURE FROZEN YOGURT,1682 30TH ST BOULDER CO USA,RESTAURANT 0 TO 100 SEATS,FAST FOOD LIMITED MENU,40.01657, -105.253599,40.0163467,-105.2524805
FA0001195,VITALITY BOWLS,2525 ARAPAHOE AVE UNIT A3 BOULDER CO USA,RESTAURANT 0 TO 100 SEATS,FAST FOOD LIMITED MENU,40.014691, -105.26231,40.0148842,-105.2625109
FA0000888,TEX MEX,424 MAIN ST LONGMONT CO USA,RESTAURANT 0 TO 100 SEATS,FULL SERVICE FULL MENU,40.166307, -105.102511,40.1663106,-105.1021649
FA0002203,WHOLE FOODS MARKET,303 MARSHALL RD SUPERIOR CO USA,GROCERY STORE W DELI MORE THAN 15000 SQ FT,GROCERY FINISHED FOODS,39.955364, -105.167816,39.95658419999999,-105.1676551
FA0001308,DAIRY QUEEN 12402,3265 28TH ST BOULDER CO USA,RESTAURANT 0 TO 100 SEATS,FAST FOOD LIMITED MENU,40.033789, -105.258515,40.0339025,-105.259242
FA0000587,MAY WAH RESTAURANT,2500 BASELINE RD BOULDER CO USA,RESTAURANT 0 TO 100 SEATS,FULL SERVICE FULL MENU,40.000165, -105.262426,39.9988256,-105.2612517
FA0005269,BLACK CAT @ BLDR FARM MRKT,1964 13TH ST Boulder CO USA,SPECIAL EVENT,SPECIAL EVENT,40.017825, -105.278567,40.0178929,-105.2784009
FA0002419,LOLLICUP BOULDER,1142 13TH ST BOULDER CO USA,RESTAURANT 0 TO 100 SEATS,FAST FOOD LIMITED MENU,40.007971, -105.276225,40.0082486,-105.2760051
FA0003720,HAZELS BEVERAGE WORLD,1955 28th ST BOULDER CO USA,GROCERY STORE 0 TO 15000 SQ FT,GROCERY FINISHED FOODS,40.020924, -105.258467,40.0207248,-105.2599845
FA0001408,TORTILLAS Y PANADERIA LAGUNA,1136 FRANCIS ST LONGMONT CO USA,RESTAURANT 0 TO 100 SEATS,FAST FOOD LIMITED MENU,40.178306, -105.116537,40.1789721,-105.1160155
FA0003510,PHO CAFE,1085 S PUBLIC RD LAFAYETTE CO USA,RESTAURANT 0 TO 100 SEATS,FULL SERVICE FULL MENU,39.989005, -105.090513,39.9887872,-105.0911771
FA0003535,TANGERINE,2777 IRIS AVE BOULDER CO USA,RESTAURANT 0 TO 100 SEATS,FULL SERVICE FULL MENU,40.036458, -105.259403,40.0373935,-105.2588972
FA0000494,JULIES THAI KITCHEN,138 MAIN ST UNIT 7 LYONS CO USA,RESTAURANT 0 TO 100 SEATS,FULL SERVICE FULL MENU,40.222178, -105.2647,40.2224975,-105.2643957
FA0001230,DAIRY QUEEN,1945 N MAIN ST LONGMONT CO USA,RESTAURANT 0 TO 100 SEATS,FAST FOOD LIMITED MENU,40.193636, -105.102349,40.1935706,-105.1028957
FA0002186,NOPALITOS,2850 IRIS AVE UNIT H BOULDER CO USA,RESTAURANT 0 TO 100 SEATS,FAST FOOD LIMITED MENU,40.036459, -105.25666,40.035263,-105.2566954
FA0000941,BOSS LADY PIZZA,1129 13TH ST UNIT B BOULDER CO USA,RESTAURANT 0 TO 100 SEATS,FAST FOOD LIMITED MENU,40.007891, -105.276226,40.007883,-105.2765749
FA0000627,EMPIRE LOUNGE AND RESTAURANT,816 MAIN ST LOUISVILLE CO USA,RESTAURANT 0 TO 100 SEATS,FULL SERVICE FULL MENU,39.978138, -105.132143,39.9781258,-105.1318116
FA0000139,SFORNO TRATTORIA,1308 PEARL ST BOULDER CO USA,RESTAURANT 0 TO 100 SEATS,FULL SERVICE FULL MENU,40.018195, -105.27858,40.01797579999999,-105.2782481
FA0000406,DUNKIN DONUTS #856,3235 28TH ST BOULDER CO USA,RESTAURANT 0 TO 100 SEATS,FAST FOOD LIMITED MENU,40.033357, -105.258511,40.0335307,-105.2592352
FA0001322,FOX HILL COUNTRY CLUB,1400 E HWY 119 LONGMONT CO USA,RESTAURANT MORE THAN 200 SEATS,FULL SERVICE FULL MENU,40.160736, -105.028941,40.16107179999999,-105.0672947
FA0004880,AFC SUSHI @ SAFEWAY #1615,3325 28TH ST BOULDER CO USA,RESTAURANT 0 TO 100 SEATS,FULL MENU LIMITED SERVICE,40.034955, -105.258526,40.0353313,-105.2602617
FA0001237,TWISTED PINE BREWING COMPANY,3201 WALNUT ST UNIT A BOULDER CO USA,RESTAURANT 0 TO 100 SEATS,FAST FOOD LIMITED MENU,40.02009, -105.25102,40.0208264,-105.251023
FA0000343,DAIRY QUEEN 12406,685 30TH ST BOULDER CO USA,RESTAURANT 0 TO 100 SEATS,FAST FOOD LIMITED MENU,39.999709, -105.25304,39.9991679,-105.2541497
FA0001203,SUBWAY,7960 NIWOT RD UNIT B10 NIWOT CO USA,RESTAURANT 0 TO 100 SEATS,FAST FOOD LIMITED MENU,40.101612, -105.168147,40.1008065,-105.1678797
FA0000314,GARDEN GATE CAFE,7960 NIWOT RD UNIT B4 NIWOT CO USA,RESTAURANT 0 TO 100 SEATS,FULL SERVICE FULL MENU,40.101612, -105.168147,40.1007853,-105.1681143
FA0005203,MOUNTAIN VIEW GRILL (MOBILE),4920 PEARL ST BOULDER CO USA,MOBILE UNIT FULL FOOD SERVICE,MOBILE UNITS,40.025673, -105.238076,40.025388,-105.2377392
FA0001414,SMOKIN DAVES BBQ & TAPHOUSE,228 MAIN ST LYONS CO USA,RESTAURANT 101 TO 200 SEATS,FULL SERVICE FULL MENU,40.223771, -105.266522,40.2237444,-105.2662098
FA0000481,LOYAL ORDER OF MOOSE LONGMONT LODGE,2200 PRATT ST LONGMONT CO USA,RESTAURANT 0 TO 100 SEATS,FULL SERVICE FULL MENU,40.19736, -105.107058,40.1970124,-105.1069013
FA0002857,COLD STONE CREAMERY,2412 ARAPAHOE AVE BOULDER CO USA,RESTAURANT 0 TO 100 SEATS,FAST FOOD LIMITED MENU,40.014556, -105.262878,40.0140792,-105.2627166
FA0001258,JAMESTOWN MERCANTILE CAFE,108 MAIN ST JAMESTOWN CO USA,RESTAURANT 0 TO 100 SEATS,FULL MENU LIMITED SERVICE,40.115755, -105.387809,35.9942835,-79.9353144
FA0002484,LITTLE CAESARS,1753 N MAIN ST LONGMONT CO USA,RESTAURANT 0 TO 100 SEATS,FAST FOOD LIMITED MENU,40.19018, -105.102335,40.1905526,-105.1024992
FA0001124,WINCHELLS DONUT,502 MAIN ST LONGMONT CO USA,RESTAURANT 0 TO 100 SEATS,FAST FOOD LIMITED MENU,40.167586, -105.102506,40.1676049,-105.1022791
FA0001192,TANGERINE RESTAURANT,379 MAIN ST LONGMONT CO USA,RESTAURANT 0 TO 100 SEATS,FULL SERVICE FULL MENU,40.165426, -105.102514,40.1654255,-105.1029414
FA0000639,MCCARTHYS PUB,30 S MAIN ST LONGMONT CO USA,RESTAURANT 0 TO 100 SEATS,BARS FRATERNAL ORGANIZATIONS,40.15861, -105.102533,40.15862569999999,-105.1021878
FA0004906,AFC SUSHI @ SAFEWAY #2910,1632 HOVER RD LONGMONT CO USA,RESTAURANT 0 TO 100 SEATS,FULL MENU LIMITED SERVICE,40.187969, -105.13092,40.1880332,-105.1293675
FA0001114,BENNYS TACOS,345 MAIN ST LONGMONT CO USA,RESTAURANT 0 TO 100 SEATS,FULL SERVICE FULL MENU,40.164874, -105.102515,40.1648783,-105.1027959
FA0002823,EAST MOON ASIAN BISTRO II,2144 MAIN ST UNIT 1 LONGMONT CO USA,RESTAURANT 0 TO 100 SEATS,FULL SERVICE FULL MENU,40.19725, -105.102419,40.1973648,-105.1009545
FA0000748,IL PASTAIO,3075 ARAPAHOE RD UNIT B BOULDER CO USA,RESTAURANT 0 TO 100 SEATS,FULL MENU LIMITED SERVICE,,,40.0150595,-105.2519596
FA0000582,SANTO,1265 ALPINE AVE BOULDER CO USA,RESTAURANT 101 TO 200 SEATS,FULL SERVICE FULL MENU,40.025518, -105.280981,40.0259872,-105.2811539
FA0003034,FLIGHT DECK GRILL (MOBILE),1509 9TH AVE LONGMONT CO USA,MOBILE UNIT FULL FOOD SERVICE,MOBILE UNITS,40.174001, -105.118261,40.1738191,-105.1182895
FA0001512,COURTYARD BY MARRIOTT 1067,1410 DRY CREEK DR LONGMONT CO USA,RESTAURANT 0 TO 100 SEATS,FULL MENU LIMITED SERVICE,40.140586, -105.13375,40.1406191,-105.1328852
FA0000961,SALT,1047 PEARL ST BOULDER CO USA,RESTAURANT 101 TO 200 SEATS,FULL SERVICE FULL MENU,40.017595, -105.281449,40.0177859,-105.2815615
FA0000790,VINA PHO AND GRILL,1630 30TH ST UNIT B BOULDER CO USA,RESTAURANT 0 TO 100 SEATS,FULL SERVICE FULL MENU,40.0153, -105.253607,40.015327,-105.2533607
FA0000674,ATTIC BAR AND BISTRO,949 WALNUT ST BOULDER CO USA,RESTAURANT 0 TO 100 SEATS,FULL SERVICE FULL MENU,40.016316, -105.282356,40.01655299999999,-105.2824109
FA0000191,CINEBARRE,1164 W DILLION RD LOUISVILLE CO USA,RESTAURANT MORE THAN 200 SEATS,FAST FOOD LIMITED MENU,39.961917, -105.167084,39.9600563,-105.1677922
FA0002699,BACCO TRATTORIA,1200 YARMOUTH AVE UNIT A BOULDER CO USA,RESTAURANT 0 TO 100 SEATS,FULL SERVICE FULL MENU,40.058238, -105.280307,40.05804670000001,-105.2814312
FA0001197,WENDYS 2808,1905 N MAIN ST LONGMONT CO USA,RESTAURANT 0 TO 100 SEATS,GROCERY FINISHED FOODS,40.192739, -105.102342,40.19263280000001,-105.1028957
FA0003807,SPIRIT HOUND DISTILLERS,4196 UTE HWY LYONS CO USA,RESTAURANT 0 TO 100 SEATS,BARS FRATERNAL ORGANIZATIONS,40.215879, -105.255586,40.2156532,-105.2560747
FA0001167,SUBWAY ERIE,3335 ARAPAHOE RD UNIT 50 ERIE CO USA,RESTAURANT 0 TO 100 SEATS,FAST FOOD LIMITED MENU,40.015303, -105.101288,40.0172175,-105.1014974
FA0000831,DELI ZONE ON THE HILL,1322 COLLEGE AVE BOULDER CO USA,RESTAURANT 0 TO 100 SEATS,FAST FOOD LIMITED MENU,40.007302, -105.275914,40.0071438,-105.275669
FA0000414,JOHN HAROLD BUCKLEY POST 32,315 S BOWEN ST LONGMONT CO USA,RESTAURANT 101 TO 200 SEATS,FULL SERVICE FULL MENU,40.154001, -105.111959,40.1540914,-105.1124653
FA0000656,BROOKLYN PIZZA,1647 ARAPAHOE AVE BOULDER CO USA,RESTAURANT 0 TO 100 SEATS,FULL MENU LIMITED SERVICE,40.014587, -105.272762,40.0147787,-105.2727487
FA0003565,TIFFIN WALLAH,2416 ARAPAHOE AVE BOULDER CO USA,RESTAURANT 0 TO 100 SEATS,FULL MENU LIMITED SERVICE,40.014555, -105.262828,40.0140542,-105.2626995
FA0001234,DAIRY QUEEN,3335 ARAPAHOE RD ERIE CO USA,RESTAURANT 0 TO 100 SEATS,FAST FOOD LIMITED MENU,40.015303, -105.101288,40.0172175,-105.1014974
FA0000653,ILLEGAL PETES,1447 PEARL ST BOULDER CO USA,RESTAURANT 0 TO 100 SEATS,FULL MENU LIMITED SERVICE,40.018569, -105.276754,40.0188174,-105.2763118
FA0000591,LUCKYS MARKET,3960 BROADWAY ST BOULDER CO USA,GROCERY STORE W DELI 0 TO 15000 SQ FT,GROCERY FINISHED FOODS,40.047521, -105.282086,40.0473408,-105.2810156
FA0000025,ABOS PIZZA NORTH,2761 IRIS AVE BOULDER CO USA,RESTAURANT 0 TO 100 SEATS,FAST FOOD LIMITED MENU,40.03645, -105.259608,40.0375466,-105.2593606
FA0001368,LOAF N JUG 95,200 LASHLEY ST LONGMONT CO USA,RESTAURANT 0 TO 100 SEATS,FAST FOOD LIMITED MENU,40.163027, -105.088171,40.1629806,-105.0876633
FA0000095,BOULDERS DINNER THEATRE,5501 ARAPAHOE RD BOULDER CO USA,RESTAURANT MORE THAN 200 SEATS,FULL SERVICE FULL MENU,,,40.0148045,-105.213055
FA0001267,FOX THEATER,1135 13TH ST BOULDER CO USA,RESTAURANT 0 TO 100 SEATS,BARS FRATERNAL ORGANIZATIONS,40.008029, -105.276225,40.0080341,-105.2765761
FA0002200,TEXAS ROADHOUSE,2351 CLOVER BASIN DR LONGMONT CO USA,RESTAURANT MORE THAN 200 SEATS,FULL SERVICE FULL MENU,40.14409, -105.131531,40.1427031,-105.1313319
FA0001236,BACK COUNTRY PIZZA AND TAP HOUSE,2319 ARAPAHOE RD BOULDER CO USA,RESTAURANT MORE THAN 200 SEATS,FULL SERVICE FULL MENU,40.014615, -105.264042,40.0145884,-105.1962555
FA0000339,SNARF BURGER,2000 ARAPAHOE AVE BOULDER CO USA,RESTAURANT 0 TO 100 SEATS,FAST FOOD LIMITED MENU,40.014605, -105.268813,40.01448329999999,-105.2688712
FA0002526,HOLIDAY INN EXPRESS,4777 BROADWAY ST BOULDER CO USA,RESTAURANT 0 TO 100 SEATS,FAST FOOD LIMITED MENU,40.060896, -105.282126,40.0612313,-105.2829086
FA0000923,SUNDOWN SALOON,1136 PEARL ST BOULDER CO USA,RESTAURANT 101 TO 200 SEATS,BARS FRATERNAL ORGANIZATIONS,40.017726, -105.280845,40.0175623,-105.280328
FA0000903,NIWOT MARKET,7980 NIWOT RD Niwot CO USA,GROCERY STORE W DELI MORE THAN 15000 SQ FT,GROCERY FINISHED FOODS,40.101625, -105.167158,40.1010572,-105.1670731
FA0002207,KING SOOPERS 135,480 N HWY 287 LAFAYETTE CO USA,GROCERY STORE W DELI MORE THAN 15000 SQ FT,GROCERY FINISHED FOODS,40.001464, -105.102804,40.00185,-105.1017375
FA0000511,LONGMONT PERFORMING ARTS CENTER,513 MAIN ST LONGMONT CO USA,RESTAURANT 0 TO 100 SEATS,FAST FOOD LIMITED MENU,40.167927, -105.102507,40.1679107,-105.1029186
FA0005013,DICKEYS BARBECUE PIT,1935 MAIN ST UNIT A LONGMONT CO USA,RESTAURANT 0 TO 100 SEATS,FULL MENU LIMITED SERVICE,40.193253, -105.102346,40.1932924,-105.1033178
FA0000673,3S BAR,333 MAIN ST LONGMONT CO USA,RESTAURANT 0 TO 100 SEATS,BARS FRATERNAL ORGANIZATIONS,40.164668, -105.102515,40.1646619,-105.1028044
FA0000558,MUSTARDS LAST STAND,1719 BROADWAY ST BOULDER CO USA,RESTAURANT 0 TO 100 SEATS,FAST FOOD LIMITED MENU,40.014475, -105.278795,40.0144493,-105.2790174
FA0001030,BOULDER COUNTY JAIL,3200 AIRPORT RD BOULDER CO USA,NO FEE LICENSE K12 SCHOOLS NON PROFIT,RESIDENTIAL FACILITIES,40.034984, -105.232676,40.0342493,-105.2327265
FA0000611,TACO BOULDER,1175 WALNUT ST BOULDER CO USA,RESTAURANT 0 TO 100 SEATS,FULL SERVICE FULL MENU,40.016809, -105.279927,40.0169852,-105.2800769
FA0000590,BLACK PEPPER PHO,2770 PEARL ST UNIT B BOULDER CO USA,RESTAURANT 0 TO 100 SEATS,FULL SERVICE FULL MENU,40.022138, -105.259053,40.0219741,-105.2590053
FA0000392,HAPA SUSHI AND SAKE,1117 PEARL ST BOULDER CO USA,RESTAURANT 0 TO 100 SEATS,FULL SERVICE FULL MENU,40.017666, -105.281119,40.0178425,-105.2808494
FA0002612,CHILIS GRILL AND BAR,579 N HWY 287 LAFAYETTE CO USA,RESTAURANT MORE THAN 200 SEATS,FULL SERVICE FULL MENU,40.003481, -105.10299,40.0034588,-105.1037534
FA0003781,JFE SUSHI (KS-80),995 S HOVER ST LONGMONT CO USA,RESTAURANT 0 TO 100 SEATS,FULL MENU LIMITED SERVICE,40.150486, -105.130772,40.1505035,-105.1341187
FA0001229,LONGMONT DAIRY QUEEN,616 MAIN ST LONGMONT CO USA,RESTAURANT 0 TO 100 SEATS,FAST FOOD LIMITED MENU,40.169629, -105.102506,40.16967229999999,-105.1021649
FA0005361,SCRUMPTIOUS (SPECIAL EVENT),7523 GRANDVIEW AVE Arvada CO USA,SPECIAL EVENT,SPECIAL EVENT,39.799232, -105.081067,39.7993842,-105.0811551
FA0000137,BOULDER COUNTRY CLUB SNACK BAR,7350 CLUBHOUSE RD BOULDER CO USA,RESTAURANT 0 TO 100 SEATS,FAST FOOD LIMITED MENU,40.065487, -105.183549,40.0651651,-105.1867747
FA0000555,MOUNTAIN PEOPLES COOP,30 E 1ST ST NEDERLAND CO USA,GROCERY STORE 0 TO 15000 SQ FT,GROCERY FINISHED FOODS,39.961885, -105.509657,39.9617441,-105.5097114
FA0003391,NATURAL GROCERS BY VITAMIN COTTAGE,1745 N MAIN ST LONGMONT CO USA,GROCERY STORE 0 TO 15000 SQ FT,GROCERY FINISHED FOODS,40.18988, -105.102333,40.19022750000001,-105.1038485
FA0000416,SUSHI HANA,1220 PENNSYLVANIA AVE BOULDER CO USA,RESTAURANT 0 TO 100 SEATS,FULL SERVICE FULL MENU,40.008693, -105.276581,40.0085287,-105.2766725
FA0000947,HALF FAST SUBS ON THE HILL,1215 13TH ST BOULDER CO USA,RESTAURANT 0 TO 100 SEATS,FAST FOOD LIMITED MENU,40.009004, -105.276226,40.00903599999999,-105.2764282
FA0001548,PANADERIA SABOR A MEXICO,2839 28TH ST BOULDER CO USA,GROCERY STORE 0 TO 15000 SQ FT,GROCERY FINISHED FOODS,40.028138, -105.258397,40.0279865,-105.2589885
FA0000401,HUCKLEBERRY,700 MAIN ST LOUISVILLE CO USA,RESTAURANT 101 TO 200 SEATS,FULL SERVICE FULL MENU,39.977013, -105.132138,39.976987,-105.1319715
FA0001374,SUSHI OUTLET,402 MARSHALL RD SUPERIOR CO USA,RESTAURANT 101 TO 200 SEATS,FULL SERVICE FULL MENU,39.956541, -105.170144,39.9564745,-105.1705339
FA0000841,TACO BELL #33840,2220 MAIN ST LONGMONT CO USA,RESTAURANT 0 TO 100 SEATS,FAST FOOD LIMITED MENU,40.198671, -105.102453,40.1983477,-105.1019365
FA0002677,MY RAMEN & IZAKAYA,3280 28TH ST UNIT 2 BOULDER CO USA,RESTAURANT 0 TO 100 SEATS,FULL SERVICE FULL MENU,40.034107, -105.258339,40.0342111,-105.2576484
FA0000061,MOES BROADWAY BAGEL,3267 28TH ST BOULDER CO USA,RESTAURANT 0 TO 100 SEATS,FAST FOOD LIMITED MENU,40.03395, -105.258516,40.034001,-105.2591438
FA0000487,LEFTYS GADGET AND PIZZA,364 2ND AVE NIWOT CO USA,RESTAURANT 0 TO 100 SEATS,FAST FOOD LIMITED MENU,40.101861, -105.17022,40.10204100000001,-105.1700541
FA0000457,SANTIAGOS MEXICAN RESTAURANT,215 MAIN ST LONGMONT CO USA,RESTAURANT 101 TO 200 SEATS,FULL MENU LIMITED SERVICE,40.162473, -105.102517,40.162504,-105.1030099
FA0000574,KTS BBQ,2660 BROADWAY ST BOULDER CO USA,RESTAURANT 0 TO 100 SEATS,FULL MENU LIMITED SERVICE,40.025109, -105.282052,40.0251452,-105.2810435
FA0002357,ALOY THAI CUISINE,2720 CANYON BLVD BOULDER CO USA,RESTAURANT 0 TO 100 SEATS,FULL MENU LIMITED SERVICE,40.017356, -105.259396,40.0169562,-105.2592189
FA0002442,PANANG THAI,1005 S PUBLIC RD LAFAYETTE CO USA,RESTAURANT 0 TO 100 SEATS,FULL SERVICE FULL MENU,39.989023, -105.090513,39.9891435,-105.091097
FA0005153,GREEN BELLY FOODS BLDR (MOBILE PRE-PKG),3605 MARTIN DR BOULDER CO USA,MOBILE UNIT PREPACKAGED,PRE PACKAGED,39.991879, -105.25095,39.9920721,-105.2509085
FA0000660,MIKE OSHAYS,512 MAIN ST LONGMONT CO USA,RESTAURANT 101 TO 200 SEATS,FULL SERVICE FULL MENU,40.167925, -105.102507,40.1678872,-105.1023241
FA0002167,FRESH THYMES EATERY,2500 30TH ST UNIT 101 BOULDER CO USA,RESTAURANT 0 TO 100 SEATS,FULL SERVICE FULL MENU,40.026724, -105.253671,40.0267261,-105.2532795
FA0004507,RIVERSIDE,1724 BROADWAY ST BOULDER CO USA,RESTAURANT 101 TO 200 SEATS,FULL SERVICE FULL MENU,40.014442, -105.278783,40.0145226,-105.2785702
FA0001046,BLUE OWL BOOKS,176 S HWY 119 NEDERLAND CO USA,RESTAURANT 0 TO 100 SEATS,FAST FOOD LIMITED MENU,39.960088, -105.510317,39.95980720000001,-105.5105523
FA0002660,SUPER TARGET 2218,551 S HOVER RD LONGMONT CO USA,GROCERY STORE W DELI MORE THAN 15000 SQ FT,GROCERY FINISHED FOODS,40.15398, -105.130706,40.1534505,-105.1343014
FA0000291,FLAGSTAFF HOUSE,1138 FLAGSTAFF RD BOULDER CO USA,RESTAURANT 101 TO 200 SEATS,FULL SERVICE FULL MENU,40.006837, -105.29432,40.007347,-105.2945057
FA0002653,PANERA BREAD #2439,1855 29TH ST UNIT 1172 BOULDER CO USA,RESTAURANT 101 TO 200 SEATS,FAST FOOD LIMITED MENU,40.019228, -105.256203,40.0190602,-105.2565447
FA0000572,NICK N WILLYS PIZZA,805 PEARL ST BOULDER CO USA,RESTAURANT 0 TO 100 SEATS,FAST FOOD LIMITED MENU,40.016871, -105.2849,40.0171028,-105.2848247
FA0001090,WENDYS 5201,455 SOUTH BOULDER RD LAFAYETTE CO USA,RESTAURANT 0 TO 100 SEATS,FAST FOOD LIMITED MENU,39.987003, -105.095049,39.9870253,-105.0869467
FA0001270,UCAR,1850 TABLE MESA DR BOULDER CO USA,RESTAURANT 101 TO 200 SEATS,FAST FOOD LIMITED MENU,39.980123, -105.280233,39.9787054,-105.2747061
FA0002332,BUFFALO WILD WINGS #111,2303 CLOVER BASIN DR LONGMONT CO USA,RESTAURANT MORE THAN 200 SEATS,FULL MENU LIMITED SERVICE,40.144121, -105.13362,40.1436813,-105.1327938
FA0003314,RED ROCK COFFEE HOUSE,3325 28TH ST UNIT 9 BOULDER CO USA,RESTAURANT 0 TO 100 SEATS,FAST FOOD LIMITED MENU,40.034955, -105.258526,40.035352,-105.2600544
FA0001035,HANA JAPANESE BISTRO,1148-6 W DILLON RD LOUISVILLE CO USA,RESTAURANT 0 TO 100 SEATS,FULL SERVICE FULL MENU,39.961872, -105.166731,39.9609922,-105.1672438
FA0000455,LA MARIPOSA RESTAURANT,1240 KEN PRATT BLVD UNIT 5A LONGMONT CO USA,RESTAURANT 101 TO 200 SEATS,FULL MENU LIMITED SERVICE,40.152321, -105.113536,40.1528021,-105.113927
FA0000244,ELDORADO CORNER MARKET,1805 S FOOTHILLS HWY BOULDER CO USA,GROCERY STORE  MORE THAN 15000 SQ FT,GROCERY FINISHED FOODS,39.954115, -105.231692,39.9538096,-105.232687
FA0000720,RIO GRANDE MEXICAN RESTAURANT,1101 WALNUT ST BOULDER CO USA,RESTAURANT MORE THAN 200 SEATS,FULL SERVICE FULL MENU,40.016651, -105.280697,40.0170142,-105.2808772
FA0000026,ABOS PIZZA,1355 SOUTH BOULDER RD C2 LOUISVILLE CO USA,RESTAURANT 0 TO 100 SEATS,FAST FOOD LIMITED MENU,,,39.98799899999999,-105.1255301
FA0003276,SPROUTS FARMERS MARKET,2950 BASELINE RD BOULDER CO USA,GROCERY STORE W DELI MORE THAN 15000 SQ FT,GROCERY FINISHED FOODS,39.999943, -105.254503,39.999112,-105.2543698
FA0003604,SNOOZE,1617 PEARL ST UNIT 100 BOULDER CO USA,RESTAURANT 101 TO 200 SEATS,FULL SERVICE FULL MENU,40.019091, -105.274184,40.019372,-105.2742706
FA0001076,TRIDENT CAFE,940 PEARL ST BOULDER CO USA,RESTAURANT 0 TO 100 SEATS,FAST FOOD LIMITED MENU,40.017267, -105.283004,40.017035,-105.2829136
FA0000754,TADKA INDIAN CUISINE,5290 ARAPAHOE RD UNIT B BOULDER CO USA,RESTAURANT 0 TO 100 SEATS,FULL SERVICE FULL MENU,40.014608, -105.229634,40.0141193,-105.2294375
FA0002983,PINOCCHIOS,210 KEN PRATT BLVD UNIT 260 LONGMONT CO USA,RESTAURANT 0 TO 100 SEATS,FULL SERVICE FULL MENU,40.152544, -105.096644,40.1537696,-105.0998027
FA0003453,DOLLAR TREE 4479,555 W SOUTH BOULDER RD UNIT B LAFAYETTE CO USA,GROCERY STORE 0 TO 15000 SQ FT,GROCERY FINISHED FOODS,39.98703, -105.096819,39.9888819,-105.0964783
FA0003872,OTIS,400 W SOUTH BOULDER RD UNIT 1100 LAFAYETTE CO USA,RESTAURANT 0 TO 100 SEATS,FAST FOOD LIMITED MENU,39.986898, -105.094961,39.98572,-105.0946551
FA0000778,SAFEWAY STORE 2919,4800 BASELINE RD BOULDER CO USA,GROCERY STORE W DELI MORE THAN 15000 SQ FT,GROCERY FINISHED FOODS,40.000017, -105.234005,39.9980269,-105.2328968
FA0003827,AMANTE BASELINE,2850 BASELINE RD UNIT A4 BOULDER CO USA,RESTAURANT 0 TO 100 SEATS,FAST FOOD LIMITED MENU,40.000046, -105.256081,39.9998179,-105.2560976
FA0000544,MOES BROADWAY BAGEL,2650 BROADWAY ST BOULDER CO USA,RESTAURANT 0 TO 100 SEATS,FAST FOOD LIMITED MENU,40.025002, -105.28205,40.0250503,-105.2810448
FA0001300,MCDONALDS 26108,399 N HWY 287 LAFAYETTE CO USA,RESTAURANT 0 TO 100 SEATS,FAST FOOD LIMITED MENU,40.001421, -105.102992,40.0013754,-105.1036494
FA0000963,TORTUGAS,218 COFFMAN ST LONGMONT CO USA,RESTAURANT 0 TO 100 SEATS,FULL SERVICE FULL MENU,40.162576, -105.103835,40.1625875,-105.1035581
FA0002137,BOULDER SHELTER FOR THE HOMELESS,4869 N BROADWAY ST BOULDER CO USA,NO FEE LICENSE K12 SCHOOLS NON PROFIT,RESIDENTIAL FACILITIES,40.062587, -105.28212,40.0625866,-105.282617
FA0000684,PERKINS RESTAURANT AND BAKERY,2051 N MAIN ST LONGMONT CO USA,RESTAURANT MORE THAN 200 SEATS,FULL SERVICE FULL MENU,40.195005, -105.102386,40.1949982,-105.1030616
FA0004860,DUNKIN DONUTS #860,64 KEN PRATT BLVD LONGMONT CO USA,RESTAURANT 0 TO 100 SEATS,FAST FOOD LIMITED MENU,40.152537, -105.095566,40.1529997,-105.095542
FA0000162,CHEF KING,1355 SOUTH BOULDER RD C LOUISVILLE CO USA,RESTAURANT 0 TO 100 SEATS,FAST FOOD LIMITED MENU,,,39.98799899999999,-105.1255301
FA0001179,YOUR BUTCHER FRANK III,900 COFFMAN ST A LONGMONT CO USA,GROCERY STORE W DELI 0 TO 15000 SQ FT,GROCERY FINISHED FOODS,40.174235, -105.103775,40.1741162,-105.1033513
